"name","lat","long"
"'Afrin",36.51,36.87
"'Ajman",25.42,55.43
"'Amman",31.95,35.93
"'Atbarah",17.71,33.98
"'Ayn Fakrun",35.98,6.87
"'Ayn Malilah",36.04,6.57
"'Ayn Qazzam",19.53,5.69
"'Ayn Salah",27.2,2.47
"'Ayn Timusanat",35.3,-1.15
"'Ayn Wilman",35.93,5.3
"'Ayn Wissarah",35.46,2.9
"'Ayn ad-Daflah",36.27,1.96
"'Ayn al-Bayda",35.81,7.39
"'Ayn as-Safra",32.76,-0.58
"'Ayn at-Tutah",35.39,5.89
"'Ayn-al-'Arab",36.89,38.37
"'Azzabah",36.75,7.1
"'Ibri",23.25,56.5
"'Unayzah",26.1,43.98
"A Coruna",43.33,-8.42
"A'zaz",36.59,37.06
"Aachen",50.77,6.09
"Aalborg",57.03,9.93
"Aalen",48.85,10.09
"Aalst",50.93,4.03
"Abadan",30.33,48.28
"Abadeh",31.18,52.67
"Abaetetuba",-1.72,-48.89
"Abakaliki",6.33,8.11
"Abakan",53.72,91.43
"Abancay",-13.64,-72.89
"Abbotsford",49.06,-122.3
"Abeche",13.84,20.83
"Abengourou",6.73,-3.49
"Abeokuta",7.16,3.35
"Aberdeen",57.15,-2.1
"Aberpura",-2.63,140.58
"Abhar",36.15,49.22
"Abidjan",5.33,-4.03
"Abiko",35.88,140.03
"Abilene",32.45,-99.74
"Abnub",27.27,31.15
"Abo Kabir",30.73,31.67
"Abo Korkas",27.93,30.82
"Abo Teeg",27.05,31.31
"Abohar",30.14,74.2
"Abomey",7.19,1.99
"Abomey-Calavi",6.44,2.36
"Abonnema",4.69,6.79
"Abottabad",34.15,73.2
"Abreu e Lima",-7.95,-34.88
"Abu 'Aris",16.97,42.83
"Abu Dhabi",24.48,54.37
"Abu Kamal",34.45,40.93
"Abu al-Hasib",30.45,47.98
"Abuja",9.18,7.17
"Abyek",36.05,50.53
"Acailandia",-5.06,-47.54
"Acambaro",20.03,-100.73
"Acapulco",16.85,-99.92
"Acarigua",9.58,-69.2
"Accra",5.56,-0.2
"Acerra",41,14.39
"Achalpur",21.26,77.5
"Acheng",45.54,126.96
"Achinsk",56.28,90.5
"Acireale",37.62,15.17
"Acuna",29.32,-100.94
"Adana",37,35.32
"Adapazari",40.79,30.41
"Addigrat",14.28,39.47
"Addis Abeba",9.03,38.74
"Adelaide",-34.93,138.6
"Adilabad",19.68,78.53
"Adilcevaz",38.81,42.74
"Adityapur",22.8,86.04
"Adiwerna",-6.93,109.12
"Adiyaman",37.77,38.28
"Adoni",15.63,77.27
"Adrar",27.87,-0.29
"Adzope",6.1,-3.87
"Afgoye",2.14,45.12
"Afikpo",5.9,7.93
"Afragola",40.93,14.3
"Afyonkarahisar",38.77,30.54
"Agadez",17,7.98
"Agadir",30.42,-9.61
"Agartala",23.84,91.27
"Agbor",6.26,6.19
"Agboville",5.94,-4.28
"Agra Cantonment",27.17,78.01
"Agrigento",37.31,13.58
"Agua Prieta",31.33,-109.56
"Aguachica",8.31,-73.62
"Agualva-Cacem",38.77,-9.3
"Aguas Lindas de Goias",-15.74,-48.25
"Aguascalientes",21.88,-102.3
"Agulu",6.11,7.05
"Agustin Codazzi",10.05,-73.25
"Ahad Rafidah",18.2,42.8
"Ahlat",38.76,42.5
"Ahlen",51.77,7.88
"Ahmadabad",23.03,72.58
"Ahmadnagar",19.1,74.74
"Ahmadpur East",29.15,71.26
"Ahvaz",31.28,48.72
"Aigaleo",37.98,23.68
"Aix-en-Provence",43.53,5.44
"Aizawl",23.71,92.71
"Aizuwakamatsu",37.49,139.93
"Ajaccio",41.93,8.73
"Ajdabiya",30.77,20.22
"Ajmer",26.45,74.64
"Akashi",34.66,134.98
"Akbarabad",29.24,52.77
"Akharnai",38.08,23.73
"Akhisar",38.93,27.83
"Akhmim",26.56,31.75
"Akiruno",35.72,139.29
"Akishima",35.7,139.36
"Akita",39.71,140.11
"Akmechet",44.8,65.47
"Akola",20.71,77
"Akron",41.08,-81.52
"Aksaray",38.37,34.03
"Aksehir",38.36,31.41
"Aktau",43.64,51.18
"Akure",7.25,5.2
"Akyab",20.14,92.89
"Al Hoceima",35.26,-3.94
"Alacant",38.35,-0.48
"Alagoinhas",-12.14,-38.43
"Alamat'a",12.42,39.56
"Alamdanga",23.74,88.93
"Alameda",37.77,-122.26
"Alandur",13.03,80.23
"Alanya",36.56,32
"Alappuzha",9.5,76.33
"Alba Iulia",46.08,23.57
"Albacete",39,-1.87
"Albany",42.67,-73.8
"Alberton",-26.33,28.13
"Albuquerque",35.12,-106.62
"Albury",-36.06,146.92
"Alcala de Guadaira",37.34,-5.84
"Alcala de Henares",40.48,-3.37
"Alchevs'k",48.47,38.8
"Alcobendas",40.54,-3.64
"Alcoi",38.7,-0.48
"Alcorcon",40.35,-3.82
"Aldershot",51.26,-0.77
"Alegrete",-29.78,-55.79
"Aleksandrov",56.4,38.72
"Aleksin",54.52,37.09
"Aleppo",36.23,37.17
"Alexandria",31.22,29.95
"Alexandria",44.92,8.61
"Alexandria",38.82,-77.09
"Alexandria",48.67,33.12
"Alexandroupoli",40.85,25.87
"Alfenas",-21.41,-45.95
"Algeciras",36.13,-5.45
"Algiers",36.77,3.04
"Algueirao-Mem Martins",38.8,-9.34
"Alhambra",34.08,-118.13
"Aliabad",36.9,54.87
"Aligarh",27.89,78.06
"Aligudarz",33.37,49.72
"Alihe",50.6,123.71
"Alipur Chatha",32.27,73.81
"Alipur Duar",26.5,89.53
"Alkmaar",52.64,4.75
"Allahabad",25.45,81.84
"Allanmyo",19.38,95.23
"Allen",33.11,-96.67
"Allende",20.92,-100.76
"Allentown",40.6,-75.48
"Almaty",43.32,76.92
"Almelo",52.36,6.65
"Almere",52.36,5.17
"Almeria",36.83,-2.43
"Almetyevsk",54.9,52.31
"Almirante Tamandare",-25.3,-49.32
"Alor Setar",6.11,100.37
"Alphen",52.14,4.66
"Altamira",-3.2,-52.21
"Altamira",22.4,-97.92
"Altamura",40.84,16.55
"Altay",47.84,88.13
"Alvand",36.32,49.16
"Alvorada",-30.02,-51.09
"Alwal",17.5,78.54
"Alwar",27.56,76.6
"Alytus",54.39,24.05
"Amadora",38.75,-9.24
"Amagasaki",34.71,135.41
"Amaigbo",5.78,7.83
"Amalapuram",16.58,82.02
"Amalner",21.05,75.06
"Amarillo",35.2,-101.82
"Amarousion",38.05,23.8
"Amasya",40.65,35.83
"Amatitlan",14.48,-90.63
"Ambajogai",18.73,76.38
"Ambala",30.38,76.77
"Ambala Cantonment",30.39,76.86
"Ambala Sadar",30.35,76.84
"Ambarawa",-7.26,110.4
"Ambarnath",19.2,73.17
"Ambato",-1.24,-78.62
"Ambattur",13.11,80.17
"Ambikapur",23.13,83.2
"Ambon",-3.7,128.16
"Ambovombe",-25.18,46.08
"Ambur",12.8,78.72
"Americana",-22.75,-47.33
"Amersfoort",52.16,5.38
"Amiens",49.9,2.3
"Amora",38.62,-9.11
"Amozoc",19.03,-98.05
"Ampang Jaya",3.15,101.77
"Amparafaravola",-17.59,48.21
"Amravati",20.95,77.76
"Amreli",21.61,71.22
"Amritsar",31.64,74.87
"Amroha",28.91,78.46
"Amstelveen",52.32,4.86
"Amsterdam",52.37,4.89
"Amuntai",-2.42,115.24
"Anaco",9.44,-64.46
"Anaheim",33.84,-117.87
"Anakapalle",17.69,83
"Anamur",36.08,32.84
"Anand",22.56,72.95
"Ananindeua",-1.38,-48.38
"Anantapur",14.7,77.59
"Anantnag",33.73,75.15
"Anapolis",-16.32,-48.96
"Anchorage",61.18,-149.19
"Ancona",43.6,13.5
"Anderson",40.09,-85.69
"Andijon",40.79,72.34
"Andimeshk",33.45,48.35
"Andong",36.56,128.72
"Andover",42.65,-71.14
"Andradina",-20.91,-51.38
"Andria",41.23,16.29
"Angangxi",47.16,123.8
"Angarsk",52.57,103.91
"Angeles",15.15,120.55
"Angers",47.48,-0.54
"Angoche",-16.23,39.91
"Angono",14.53,121.15
"Angouleme",45.66,0.15
"Angra dos Reis",-23,-44.32
"Angren",41.03,70.15
"Anjangaon",21.16,77.31
"Anjar",23.12,70.02
"Anjiang",27.32,110.12
"Ankang",32.68,109.02
"Ankara",39.93,32.85
"Anklesvar",21.63,72.98
"Ankpa",7.38,7.62
"Ann Arbor",42.28,-83.73
"Annabah",36.91,7.76
"Annandale",38.83,-77.21
"Anqing",30.5,117.05
"Anqiu",36.43,119.19
"Ansan",37.35,126.86
"Anshan",41.12,122.95
"Anshun",26.25,105.93
"Ansong",37.01,127.28
"Antakya",36.2,36.17
"Antalya",36.89,30.71
"Antananarivo",-18.89,47.51
"Antanifotsy",-19.67,47.32
"Antibes",43.6,7.12
"Antioch",37.99,-121.8
"Antipolo",14.59,121.18
"Antofagasta",-23.65,-70.39
"Antony",48.76,2.3
"Antratsyt",48.12,39.09
"Antsirabe",-19.87,47.03
"Antsiranana",-12.28,49.28
"Antwerp",51.22,4.42
"Anuradhapura",8.32,80.41
"Anxiang",29.41,112.15
"Anyama",5.5,-4.05
"Anyang",36.08,114.35
"Anyang",37.39,126.92
"Anzhero-Sudzhensk",56.08,86.04
"Aojiang",27.62,120.55
"Aomen",22.27,113.56
"Aomori",40.83,140.74
"Aonla",28.28,79.15
"Apalit",14.95,120.77
"Aparecida de Goiania",-16.82,-49.24
"Apartado",7.89,-76.64
"Apatity",67.57,33.39
"Apatzingan",19.08,-102.35
"Apeldoorn",52.22,5.96
"Apodaca",25.77,-100.18
"Apomu",7.33,4.18
"Apopa",13.8,-89.18
"Apple Valley",34.53,-117.21
"Appleton",44.27,-88.4
"Aprilia",41.6,12.65
"Apucarana",-23.55,-51.47
"Aqcah",36.93,66.16
"Aqtobe",50.28,57.17
"Aquiraz",-3.9,-38.37
"Ara'ar",30.99,41.02
"Aracaju",-10.91,-37.07
"Aracatuba",-21.21,-50.45
"Aracruz",-19.82,-40.27
"Araguaina",-7.19,-48.21
"Araguari",-18.64,-48.2
"Arakan",18.46,94.37
"Arakonam",13.08,79.67
"Arambagh",22.88,87.78
"Aramoko",7.72,5.05
"Arani",12.68,79.28
"Arapiraca",-9.75,-36.67
"Arapongas",-23.41,-51.43
"Araraquara",-21.75,-48.13
"Araras",-22.36,-47.39
"Araria",26.15,87.52
"Araruama",-22.87,-42.36
"Arauca",7.08,-70.76
"Araucaria",-25.58,-49.4
"Araure",9.59,-69.22
"Araxa",-19.58,-46.95
"Arayat",15.15,120.77
"Arba Minch",6.04,37.55
"Arcadia",34.13,-118.04
"Arcot",12.91,79.33
"Arcoverde",-8.42,-37.07
"Ardabil",38.25,48.3
"Ardakan",32.32,54.01
"Arden-Arcade",38.6,-121.38
"Ardesen",41.2,40.99
"Arequipa",-16.39,-71.53
"Arezzo",43.47,11.87
"Argenteuil",48.94,2.24
"Arhus",56.16,10.21
"Arica",-18.49,-70.3
"Arifwala",30.3,73.07
"Ariha",35.82,36.62
"Ariquemes",-9.94,-63.08
"Arjawinangun",-6.65,108.4
"Arjona",10.26,-75.35
"Arkalik",50.25,66.9
"Arkhangelsk",64.57,40.53
"Arles",43.69,4.63
"Arlington",32.69,-97.13
"Arlington Heights",42.09,-87.98
"Arlit",18.82,7.33
"Armant",25.72,32.59
"Armavir",44.99,41.12
"Armenia",4.53,-75.69
"Arnhem",51.99,5.91
"Arnsberg",51.41,8.06
"Arona",28.09,-16.67
"Arraijan",8.95,-79.65
"Arrecife",28.96,-13.55
"Arsenyev",44.16,133.28
"Artemisa",22.82,-82.76
"Artyom",43.36,132.18
"Artyomovsk",48.59,38.01
"Aruja",-23.4,-46.34
"Aruppukkottai",9.51,78.09
"Arusha",-3.36,36.67
"Arvada",39.82,-105.11
"Aryanah",36.88,10.18
"Arzamas",55.38,43.82
"Asaba",6.2,6.74
"Asadabad",34.87,71.15
"Asadabad",34.79,48.11
"Asahikawa",43.77,142.36
"Asaka",35.83,139.58
"Asaka",40.65,72.24
"Asansol",23.69,86.98
"Asbest",57.02,61.46
"Aschaffenburg",49.99,9.15
"Ascoli Piceno",42.86,13.58
"Asenovgrad",42.02,24.88
"Asgabat",37.95,58.38
"Ashdod",31.8,34.64
"Asheville",35.57,-82.55
"Ashford",51.15,0.86
"Ashiaman",5.7,-0.33
"Ashikaga",36.35,139.45
"Ashiya",34.73,135.31
"Ashmoon",30.3,30.97
"Ashoknagar",24.57,77.72
"Ashoknagar Kalyangarh",22.76,89.6
"Ashqelon",31.67,34.56
"Asmara",15.33,38.94
"Asnieres-sur-Seine",48.91,2.29
"Aspen Hill",39.09,-77.08
"Asseb",13.01,42.74
"Assela",7.95,39.14
"Assen",53.01,6.56
"Assis",-22.66,-50.42
"Astana",51.17,71.47
"Astanajapura",-6.8,108.6
"Astrakhan",46.35,48.05
"Asuncion",-25.3,-57.63
"Aswan",24.08,32.92
"Asyut",27.19,31.18
"Atakpame",7.53,1.12
"Atenco",19.26,-99.54
"Athens",37.98,23.73
"Athens-Clarke",33.95,-83.39
"Atibaia",-23.12,-46.57
"Atlanta",33.76,-84.42
"Atlantis",-33.57,18.48
"Atlixco",18.9,-98.45
"Atsugi",35.45,139.36
"Attock",33.78,72.36
"Attur",11.6,78.6
"Atyrau",47.12,51.88
"Aubervilliers",48.92,2.39
"Auburn",32.59,-85.48
"Auchi",7.08,6.26
"Auckland",-36.85,174.76
"Augsburg",48.36,10.89
"Augusta-Richmond",33.46,-81.99
"Aulnay-sous-Bois",48.96,2.49
"Auraiya",26.47,79.5
"Aurangabad",19.89,75.32
"Aurora",39.71,-104.73
"Austin",30.31,-97.75
"Avadi",13.12,80.11
"Avaniapuram",9.86,78.12
"Avare",-23.11,-48.93
"Aveiro",40.65,-8.66
"Avellino",40.92,14.79
"Aversa",40.98,14.19
"Avignon",43.96,4.81
"Avila",40.67,-4.7
"Aviles",43.56,-5.91
"Avondale",33.42,-112.32
"Awassa",7.06,38.47
"Awlad Jallal",34.43,5.06
"Awlad Ya'is",36.5,2.85
"Ayacucho",-13.17,-74.22
"Ayase",35.44,139.43
"Aybak",36.26,68.04
"Aydin",37.86,27.84
"Ayer Itam",5.47,100.45
"Ayia Paraskevi",38.01,23.83
"Ayios Dimitrios",37.94,23.73
"Aylesbury",51.83,-0.83
"Ayodhya",26.8,82.2
"Ayutthaya",14.36,100.57
"Azamgarh",26.07,83.18
"Azare",11.68,10.19
"Azcatepec",19.71,-98.84
"B'abda",33.88,35.57
"Ba'qubah",33.75,44.64
"Bab Azwar",36.72,3.18
"Babahoyo",-1.8,-79.54
"Babakan",-6.83,108.72
"Babol",36.53,52.7
"Babrujsk",53.13,29.19
"Bac Giang",21.28,106.19
"Bac Lieu",9.3,105.72
"Bacabal",-4.23,-44.8
"Bacau",46.58,26.92
"Bacolod",10.63,122.97
"Bacoor",14.46,120.94
"Bad Homburg",50.23,8.62
"Bad Salzuflen",52.09,8.75
"Badajoz",38.88,-6.97
"Badalona",41.45,2.24
"Badaojiang",41.94,126.44
"Baden-Baden",48.76,8.23
"Badin",24.66,68.84
"Badlapur",19.15,73.27
"Bafang",5.17,10.18
"Bafia",4.75,11.23
"Bafoussam",5.49,10.41
"Bafra",41.57,35.89
"Bagaha",27.1,84.09
"Bagalkot",16.19,75.69
"Bagamoyo",-6.44,38.89
"Bagar Hat",22.66,89.8
"Bagbahra",22.82,86.2
"Baghdad",33.33,44.44
"Bagheria",38.09,13.51
"Baglan",36.14,68.7
"Baguio",16.43,120.57
"Bahadurgarh",28.69,76.92
"Baharampur",24.1,88.24
"Bahawalnagar",30,73.25
"Bahawalpur",29.39,71.67
"Baheri",28.78,79.5
"Bahia Blanca",-38.72,-62.28
"Bahir Dar",11.56,37.37
"Bahla'",22.97,57.3
"Bahrah",21.4,39.45
"Bahraich",27.58,81.59
"Bai Pheru",31.2,73.95
"Baia Mare",47.66,23.58
"Baicheng",45.62,122.82
"Baidyabati",22.79,88.33
"Baihe",22.15,107.22
"Baijiantan",45.64,85.18
"Baiquan",47.6,126.08
"Baisha",29.83,115.22
"Baishishan",43.59,127.56
"Baiyin",36.53,104.2
"Baj Baj",22.48,88.17
"Bajah",36.73,9.19
"Bajil",15.06,43.28
"Bajos de Haina",18.42,-70.03
"Bakersfield",35.36,-119
"Bakixanov",40.41,49.93
"Balaghat",21.8,80.18
"Balagtas",14.82,120.87
"Balaipungut",1.05,101.28
"Balakhna",56.49,43.59
"Balakong",3.03,101.75
"Balakovo",52.03,47.78
"Balanga",14.68,120.54
"Balangir",20.71,83.5
"Balaraja",-6.21,105.95
"Balashikha",55.8,37.95
"Balashov",51.55,43.17
"Balayan",13.94,120.73
"Baldwin Park",34.08,-117.97
"Baleshwar",21.49,86.95
"Balfour",-26.65,28.59
"Balikesir",39.65,27.88
"Balikpapan",-1.26,116.83
"Baliuag",14.96,120.89
"Balkanabat",39.51,54.36
"Balkhash",46.85,74.95
"Ballarat",-37.56,143.84
"Ballarpur",19.85,79.35
"Ballia",25.76,84.15
"Bally",22.65,88.35
"Bally Cantonment",22.65,88.36
"Balneario Camboriu",-26.98,-48.63
"Balotra",25.83,72.23
"Balrampur",27.43,82.18
"Balsas",-7.52,-46.05
"Balti",47.76,27.91
"Baltimore",39.3,-76.61
"Balurghat",25.23,88.77
"Bamako",12.65,-7.99
"Bamberg",49.9,10.9
"Bamenda",5.96,10.15
"Bamiantong",44.92,130.54
"Bamiyan",34.82,67.52
"Ban Pong",13.81,99.87
"Banda",25.47,80.33
"Banda Aceh",5.55,95.32
"Bandar Lampung",-5.44,105.27
"Bandar Maharani",2.05,102.56
"Bandar Penggaram",1.85,102.93
"Bandar Seri Begawan",4.93,114.95
"Bandar-e 'Abbas",27.25,56.25
"Bandar-e Anzali",37.47,49.45
"Bandar-e Gonaveh",29.57,50.52
"Bandar-e Mahshahr",30.65,49.22
"Bandar-e Torkaman",36.88,54.07
"Bandirma",40.37,27.98
"Bandundu",-3.31,17.38
"Bandung",-6.91,107.6
"Baneh",35.98,45.92
"Banes",20.96,-75.72
"Banfora",10.63,-4.76
"Bang Kruai",13.81,100.45
"Banga",6.42,124.77
"Bangalore",12.97,77.56
"Bangangte",5.15,10.51
"Bangaon",23.05,88.83
"Banggae",-3.87,119.71
"Bangil",-7.6,112.78
"Bangkalan",-7.03,112.74
"Bangkok",13.73,100.5
"Bangor",54.66,-5.68
"Bangui",4.36,18.56
"Bani Bu `Ali",22.56,59.57
"Bani Marad",36.54,2.87
"Banja Luka",44.78,17.19
"Banjaran",-7.05,107.58
"Banjarmasin",-3.33,114.59
"Bankra",22.58,88.31
"Bankura",23.24,87.07
"Bansbaria",22.95,88.4
"Banska Bystrica",48.74,19.15
"Banswara",23.54,74.44
"Banting",2.82,101.5
"Bantou",25.37,118.68
"Bantul",-7.88,110.33
"Banyuwangi",-8.2,114.37
"Baoding",38.87,115.48
"Baoji",34.38,107.15
"Baoning",31.58,105.96
"Baoqing",46.33,132.19
"Baoshan",46.57,131.39
"Baotou",40.6,110.05
"Baoying",33.23,119.3
"Bapatla",15.91,80.47
"Barabai",-2.58,115.38
"Barahona",18.21,-71.1
"Barakaldo",43.28,-2.98
"Barakpur",22.76,88.38
"Baramati",18.15,74.58
"Baramula",34.2,74.35
"Baran",25.1,76.51
"Baranagar",22.64,88.37
"Baranavicy",53.14,26.02
"Baraqi",36.67,3.1
"Barasat",22.72,88.48
"Baraut",29.1,77.26
"Barbacena",-21.22,-43.77
"Barberton",-25.78,31.05
"Barbil",22.12,85.4
"Barcelona",41.4,2.17
"Barcelona",10.13,-64.72
"Bardaw",36.82,10.13
"Barddhaman",23.24,87.86
"Bardoli",21.12,73.12
"Bareli",28.36,79.41
"Bargarh",21.34,83.61
"Barikah",35.39,5.37
"Bariloche",-41.14,-71.32
"Barinas",8.6,-70.25
"Baripada",21.95,86.73
"Barisal",22.7,90.37
"Barisaw",54.22,28.51
"Barka",23.71,57.88
"Barlad",46.23,27.66
"Barletta",41.32,16.27
"Barmer",25.75,71.39
"Barnala",30.39,75.54
"Barnaul",53.36,83.75
"Barneveld",52.14,5.57
"Barnsley",53.57,-1.49
"Barquisimeto",10.05,-69.3
"Barra Mansa",-22.56,-44.17
"Barra do Corda",-5.51,-45.26
"Barra do Garcas",-15.88,-52.26
"Barra do Pirai",-22.47,-43.83
"Barrancabermeja",7.09,-73.85
"Barranquilla",10.96,-74.8
"Barreiras",-12.14,-45
"Barreiro",38.66,-9.08
"Barretos",-20.55,-48.58
"Barrie",44.38,-79.68
"Barry",51.4,-3.29
"Barsi",18.24,75.69
"Barueri",-23.49,-46.86
"Baruni",25.48,85.98
"Baruta",10.43,-66.88
"Basavakalyan",17.87,76.95
"Basbas",36.7,7.85
"Basel",47.57,7.58
"Basildon",51.57,0.46
"Basingstoke",51.27,-1.11
"Basirhat",22.66,88.86
"Basmat",19.32,77.17
"Basoda",23.85,77.93
"Bassar",31.61,-2.23
"Bassar",9.26,0.79
"Basti",26.8,82.74
"Basyoon",30.95,30.81
"Bat Dambang",13.11,103.21
"Bat Yam",32.02,34.75
"Batala",31.82,75.21
"Batam",1.03,103.92
"Batang",-6.94,109.77
"Batangas",13.78,121.02
"Batatais",-20.89,-47.59
"Bataysk",47.14,39.75
"Bathinda",30.17,74.97
"Batley",53.72,-1.64
"Batman",37.89,41.13
"Batnah",35.57,6.17
"Baton Rouge",30.45,-91.13
"Battaramulla",6.9,79.92
"Batticaloa",7.71,81.69
"Battipaglia",40.62,14.97
"Battle Creek",42.3,-85.23
"Batumi",41.65,41.65
"Baturaja",-4.13,104.17
"Bau Bau",-5.47,122.6
"Bauchi",10.31,9.84
"Bauru",-22.33,-49.08
"Bawku",11.06,-0.24
"Bawsar",23.53,58.39
"Bayamo",20.38,-76.65
"Bayamon",18.35,-66.17
"Bayan",46.08,127.4
"Baydabo",3.12,43.64
"Bayeux",-7.13,-34.92
"Bayonne",40.66,-74.11
"Bayramali",37.62,62.16
"Bayreuth",49.95,11.58
"Bayrut",33.88,35.5
"Bayt Lahiya",31.56,34.5
"Baytown",29.75,-94.97
"Be'er Sheva",31.25,34.8
"Beau Bassin-Rose Hill",-20.23,57.46
"Beaumont",30.09,-94.14
"Beauvais",49.43,2.09
"Beaverton",45.48,-122.82
"Beawar",26.1,74.3
"Bebedouro",-20.95,-48.49
"Bebington",53.35,-3.01
"Bedford",52.15,-0.49
"Bedong",5.73,100.52
"Bedzin",50.34,19.13
"Beeston and Stapleford",52.93,-1.22
"Begamganj",23.04,91.1
"Begusarai",25.42,86.12
"Behbahan",30.58,50.27
"Behshahr",36.72,53.55
"Beian",48.27,126.6
"Beibei",29.83,106.44
"Beidao",34.57,105.89
"Beihai",21.48,109.1
"Beijing",39.93,116.4
"Beipiao",41.81,120.76
"Beira",-19.83,34.84
"Bekasi",-6.22,106.97
"Bekescsaba",46.68,21.08
"Bekobod",40.21,69.24
"Bel Air South",39.5,-76.32
"Belampalli",19.06,79.49
"Belawan",3.79,98.69
"Belbees",30.43,31.56
"Belchatow",51.37,19.36
"Belebey",54.12,54.12
"Beled Weyne",4.73,45.19
"Belem",-1.44,-48.5
"Belfast",54.6,-5.93
"Belford Roxo",-22.75,-43.42
"Belfort",47.65,6.85
"Belgaum",15.86,74.5
"Belgorod",50.61,36.59
"Belgrade",44.83,20.5
"Belize",17.5,-88.19
"Belkas",31.22,31.35
"Bellary",15.14,76.91
"Belleville",44.17,-77.38
"Bellevue",47.6,-122.16
"Bellflower",33.89,-118.13
"Bellingham",48.74,-122.47
"Bello",6.33,-75.57
"Belo Horizonte",-19.92,-43.94
"Belo Jardim",-8.33,-36.42
"Belogorsk",50.92,128.47
"Belorechensk",44.77,39.87
"Beloretsk",53.97,58.4
"Belovo",54.42,86.3
"Ben Guerir",32.25,-7.96
"Ben Tre",10.23,106.37
"Bende",5.57,7.63
"Bendigo",-36.76,144.28
"Bene Beraq",32.09,34.85
"Benevento",41.13,14.77
"Benevides",-1.36,-48.24
"Bengbu",32.95,117.33
"Benghazi",32.12,20.07
"Bengkulu",-3.8,102.25
"Benguela",-12.58,13.4
"Benha",30.47,31.18
"Beni Mazar",28.49,30.81
"Beni Mellal",32.35,-6.37
"Beni Suef",29.08,31.09
"Benidorm",38.55,-0.14
"Benin",6.34,5.62
"Benoni",-26.15,28.33
"Bento Goncalves",-29.17,-51.52
"Bentong",3.51,101.92
"Benxi",41.33,123.75
"Beppu",33.28,131.5
"Berbera",10.44,45
"Berberati",4.25,15.78
"Berdsk",54.76,83.08
"Berdyans'k",46.75,36.79
"Berdychiv",49.9,28.58
"Berezniki",59.41,56.77
"Bergama",39.13,27.17
"Bergamo",45.7,9.67
"Bergen",60.38,5.34
"Bergen op Zoom",51.5,4.29
"Bergheim",50.96,6.64
"Bergisch Gladbach",50.98,7.15
"Bergkamen",51.62,7.63
"Berkane",34.93,-2.33
"Berkeley",37.87,-122.27
"Berlin",52.52,13.38
"Berrechid",33.28,-7.59
"Bertoua",4.58,13.68
"Beruniy",41.69,60.74
"Berwyn",41.84,-87.79
"Besancon",47.24,6.02
"Besuki",-7.73,113.68
"Bet Shemesh",31.75,34.98
"Bethal",-26.47,29.45
"Bethesda",38.99,-77.12
"Bethlehem",-28.22,28.3
"Bethlehem",40.63,-75.37
"Betim",-19.97,-44.19
"Bettiah",26.81,84.5
"Betul",21.92,77.9
"Beyla",31.18,31.21
"Beypur",11.18,75.82
"Bezerros",-8.23,-35.75
"Beziers",43.35,3.21
"Bhadohi",25.4,82.56
"Bhadrak",21.06,86.52
"Bhadravati",13.84,75.69
"Bhadreswar",22.84,88.35
"Bhagalpur",25.26,86.98
"Bhairab Bazar",24.06,90.96
"Bhakkar",31.63,71.06
"Bhaktapur",27.67,85.43
"Bhalswa Jahangirpur",28.74,77.17
"Bhalwal",32.27,72.9
"Bhandara",21.18,79.65
"Bharatpur",27.23,77.49
"Bharatpur",27.67,84.44
"Bharuch",21.71,72.97
"Bhatapara",21.73,81.93
"Bhatpara",22.89,88.42
"Bhavnagar",21.79,72.13
"Bhawanipatna",19.91,83.17
"Bhilai",21.21,81.38
"Bhilwara",25.35,74.63
"Bhimavaram",16.55,81.53
"Bhind",26.57,78.77
"Bhiwandi",19.3,73.05
"Bhiwani",28.81,76.12
"Bhola",22.68,90.64
"Bhopal",23.24,77.4
"Bhubaneswar",20.27,85.84
"Bhuli",23.79,86.38
"Bhusawal",21.05,75.78
"Bi'r Hadam",36.72,3.03
"Bi'r Waqiyah",36.14,2.91
"Bi'r-al-Jir",35.72,-0.57
"Biala Podlaska",52.04,23.11
"Bialystok",53.14,23.16
"Bianzhuang",34.84,118.04
"Bidar",17.92,77.52
"Bidhannagar",22.57,88.42
"Bielefeld",52.03,8.53
"Bielsko-Biala",49.82,19.05
"Bien Hoa",10.95,106.82
"Bien San",20.06,105.85
"Biguacu",-27.5,-48.66
"Bihac",44.82,15.87
"Bihar",25.21,85.52
"Bijapur",16.83,75.71
"Bijar",35.87,47.6
"Bijayah",36.76,5.07
"Bijie",27.31,105.28
"Bijnor",29.38,78.13
"Bikaner",28.03,73.32
"Bila Tserkva",49.78,30.12
"Bilaspur",22.09,82.15
"Bilbao",43.25,-2.93
"Bilimora",20.78,72.95
"Billings",45.79,-108.54
"Bimbo",4.3,18.54
"Bin 'Arus",36.75,10.32
"Bina-Etawa",24.2,78.2
"Binangonan",14.48,121.19
"Binga",2.4,20.42
"Bingerville",5.36,-3.9
"Bingol",38.89,40.49
"Binjai",3.6,98.48
"Bintulu",3.17,113.03
"Binzart",37.29,9.87
"Binzhou",37.37,118.01
"Bir-al-'Itir",34.75,8.05
"Biratnagar",26.46,87.28
"Birganj",27.02,84.87
"Birigui",-21.29,-50.34
"Birin",35.62,3.21
"Birjand",32.88,59.22
"Birkenhead",53.39,-3.04
"Birmingham",52.48,-1.91
"Birmingham",33.53,-86.8
"Birnin Kebbi",12.46,4.19
"Birobidzhan",48.8,132.95
"Bisah",20.01,42.6
"Bisai",35.31,136.74
"Bisalpur",28.3,79.8
"Bisceglie",41.25,16.5
"Bishnupur",23.08,87.33
"Bisho",-32.87,27.39
"Biskek",42.87,74.57
"Biskrah",34.86,5.73
"Bislig",8.22,126.32
"Bismarck",46.81,-100.77
"Bismil",37.85,40.67
"Bissau",11.87,-15.6
"Bistrita",47.14,24.5
"Biswan",27.5,81
"Bitola",41.04,21.34
"Bitonto",41.12,16.69
"Bitung",1.46,125.19
"Biysk",52.53,85.17
"Blackburn",53.75,-2.49
"Blackpool",53.82,-3.06
"Blagoevgrad",42.03,23.09
"Blagoveshchensk",50.27,127.53
"Blaine",45.17,-93.21
"Blantyre",-15.79,34.99
"Bletchley",52,-0.74
"Blitar",-8.07,112.16
"Bloemfontein",-29.15,26.23
"Blois",47.59,1.32
"Bloomington",44.83,-93.32
"Blora",-6.96,111.41
"Blue Springs",39.02,-94.27
"Blumenau",-26.92,-49.09
"Boa Vista",2.83,-60.66
"Bobbili",18.57,83.37
"Bobo Dioulasso",11.18,-4.29
"Boca Raton",26.37,-80.11
"Bocaue",14.82,120.92
"Bocholt",51.84,6.61
"Bochum",51.48,7.2
"Bodhan",18.66,77.88
"Bodinayakkanur",10.01,77.35
"Bogale",16.29,95.4
"Bognor Regis",50.79,-0.69
"Bogor",-6.58,106.79
"Bogora",24.84,89.37
"Bogota",4.63,-74.09
"Bohicon",7.17,2.07
"Boise City",43.61,-116.23
"Boituva",-23.28,-47.69
"Bojnurd",37.47,57.32
"Bojonegoro",-7.15,111.87
"Bojong Gede",-6.48,107.78
"Bokaro",23.78,85.96
"Boksburg",-26.27,28.23
"Bolgatanga",10.79,-0.85
"Bolingbrook",41.7,-88.08
"Bologna",44.5,11.34
"Bolpur",23.67,87.7
"Bolton",53.58,-2.43
"Bolvadin",38.73,31.04
"Bolzano",46.5,11.35
"Bombay",18.96,72.82
"Bommanahalli",13.01,77.63
"Bonab",37.33,46.05
"Bonao",18.95,-70.41
"Bondoukou",8.03,-2.8
"Bondowoso",-7.91,113.82
"Bongaigaon",26.48,90.54
"Bontang",0.14,117.49
"Bontonompo",-5.36,119.41
"Boosh",29.15,31.13
"Bootle",53.47,-3.01
"Boras",57.73,12.94
"Borazjan",29.27,51.2
"Bordeaux",44.84,-0.58
"Borisoglebsk",51.37,42.09
"Borovichi",58.4,33.9
"Borsad",22.42,72.9
"Borujan",31.97,51.29
"Borujerd",33.92,48.8
"Boryspil'",50.35,30.95
"Bosaso",11.28,49.18
"Boshan",36.48,117.85
"Bossier City",32.52,-93.66
"Boston",42.34,-71.02
"Botad",22.18,71.66
"Botosani",47.75,26.67
"Botou",38.07,116.55
"Botshabelo",-29.23,26.73
"Bottrop",51.53,6.93
"Botucatu",-22.88,-48.45
"Bouafle",6.98,-5.75
"Bouake",7.69,-5.03
"Boulder",40.03,-105.25
"Boulogne-Billancourt",48.83,2.24
"Bourges",47.08,2.39
"Bournemouth",50.73,-1.88
"Bowie",38.96,-76.74
"Bowling Green",36.97,-86.44
"Boynton Beach",26.53,-80.08
"Boyolali",-7.52,110.59
"Bozhou",33.87,115.76
"Bozuyuk",39.92,30.03
"Bracknell",51.42,-0.77
"Bradenton",27.49,-82.58
"Bradford",53.8,-1.75
"Braga",41.55,-8.43
"Braganca",-1.05,-46.77
"Braganca Paulista",-22.95,-46.55
"Brahman Bariya",23.97,91.1
"Brahmapur",19.32,84.8
"Braila",45.28,27.97
"Brajrajnagar",21.82,83.91
"Brakpan",-26.29,28.37
"Brandenburg",52.42,12.53
"Brandon",27.93,-82.29
"Brantford",43.15,-80.26
"Brasilia",-15.78,-47.91
"Brasov",45.66,25.61
"Bratislava",48.16,17.13
"Bratsk",56.3,101.71
"Brazzaville",-4.25,15.26
"Brebes",-6.86,109.03
"Breda",51.58,4.77
"Bremen",53.08,8.81
"Bremerhaven",53.55,8.58
"Brentwood",40.78,-73.25
"Brescia",45.55,10.22
"Brest",52.12,23.68
"Brest",48.39,-4.5
"Brewster",41.77,-70.08
"Bridgeport",41.19,-73.2
"Bridgetown",13.11,-59.61
"Bridgewater",41.99,-70.97
"Brighton",50.83,-0.15
"Brikama",13.28,-16.66
"Brindisi",40.64,17.93
"Brisbane",-27.46,153.02
"Bristol",51.46,-2.6
"Bristol",41.68,-72.94
"Brits",-25.63,27.78
"Brive-la-Gaillarde",45.16,1.51
"Brockton",42.08,-71.03
"Broken Arrow",36.04,-95.79
"Brookline",42.32,-71.14
"Brooklyn Park",45.11,-93.35
"Brovary",50.5,30.77
"Brownsville",25.93,-97.48
"Brugge",51.22,3.23
"Brunswick",52.27,10.51
"Brusque",-27.13,-48.93
"Brussels",50.83,4.33
"Bryan",30.67,-96.37
"Bryanka",48.51,38.66
"Bryansk",53.26,34.42
"Bu Nura",32.49,3.72
"Bu Sa'adah",35.21,4.18
"Bucaramanga",7.13,-73.13
"Bucharest",44.44,26.1
"Budapest",47.51,19.08
"Budaun",28.04,79.12
"Budyonnovsk",44.79,44.14
"Buena Park",33.86,-118
"Buenaventura",3.89,-77.04
"Buenavista",19.55,-99.05
"Buenos Aires",-34.61,-58.37
"Bufarik",36.58,2.9
"Buffalo",42.89,-78.86
"Bugama",4.73,6.87
"Bugni",36.53,3.95
"Bugulma",54.55,52.8
"Buguruslan",53.65,52.43
"Bujumbura",-3.37,29.35
"Bukan",36.53,46.2
"Bukavu",-2.51,28.84
"Bukit Baru",2.22,102.27
"Bukit Mertajam",5.37,100.46
"Bukit Tinggi",-0.31,100.37
"Bukoba",-1.32,31.8
"Bulacan",14.79,120.88
"Bulandshahr",28.41,77.85
"Bulaon",15.09,120.67
"Bulawayo",-20.17,28.58
"Buldana",20.54,76.18
"Bumba",2.19,22.46
"Bumiayu",-7.25,109
"Bunda",-2.05,33.87
"Bundaberg",-24.87,152.35
"Bundi",25.45,75.63
"Bungoma",0.57,34.56
"Bunia",1.56,30.24
"Buon Me Thuot",12.68,108.04
"Buqarah",36.54,3.06
"Bur Sudan",19.63,37.12
"Bur'o",9.53,45.53
"Buraydah",26.37,43.97
"Burbank",34.19,-118.33
"Burdur",37.73,30.28
"Burewala",30.16,72.67
"Burgas",42.51,27.47
"Burgos",42.35,-3.69
"Burhanpur",21.33,76.22
"Burj Bu Arririj",36.06,4.63
"Burj-al-Kifan",36.75,3.18
"Burke",38.78,-77.27
"Burnley",53.8,-2.26
"Burnsville",44.76,-93.28
"Bursa",40.2,29.08
"Buseresere",-3.02,31.87
"Bushehr",28.92,50.83
"Busto Arsizio",45.62,8.84
"Butare",-2.59,29.73
"Butembo",0.13,29.28
"Butterworth",5.4,100.37
"Butuan",8.93,125.52
"Butwal",27.71,83.45
"Buxar",25.58,83.98
"Buxoro",39.77,64.42
"Buynaksk",42.83,47.12
"Buzau",45.15,26.82
"Buzuluk",52.78,52.26
"Bydgoszcz",53.12,18.01
"Bytom",50.35,18.91
"Byumba",-1.58,30.06
"Ca Mau",9.18,105.15
"Caaguazu",-25.46,-56.02
"Cabanatuan",15.5,120.97
"Cabedelo",-6.98,-34.83
"Cabiao",15.25,120.86
"Cabimas",10.43,-71.45
"Cabinda",-5.55,12.19
"Cabo Frio",-22.89,-42.04
"Cabo de Santo Agostinho",-8.29,-35.03
"Caborca",30.72,-112.16
"Cabudare",10.03,-69.27
"Cacador",-26.77,-51.02
"Cacak",43.9,20.33
"Cacapava",-23.1,-45.71
"Caceres",-16.05,-57.51
"Caceres",39.47,-6.38
"Cachoeira do Sul",-30.03,-52.91
"Cachoeirinha",-29.95,-51.09
"Cachoeiro de Itapemirim",-20.85,-41.13
"Cacoal",-11.5,-61.42
"Cadereyta",25.6,-100
"Cadiz",10.93,123.3
"Cadiz",36.53,-6.29
"Cagayan",8.45,124.67
"Cagliari",39.22,9.1
"Cagua",10.19,-67.46
"Caguas",18.23,-66.07
"Caico",-6.46,-37.1
"Caidian",30.56,114.07
"Caieiras",-23.36,-46.74
"Cainta",14.58,121.12
"Cairns",-16.92,145.75
"Cairo",30.06,31.25
"Cajamar",-23.35,-46.89
"Cajamarca",-7.16,-78.52
"Calabar",4.96,8.31
"Calabozo",8.93,-67.44
"Calais",50.95,1.86
"Calama",-22.45,-68.92
"Calamba",14.21,121.15
"Calapan",13.42,121.19
"Calarasi",44.2,27.33
"Calarca",4.54,-75.64
"Calbayog",12.07,124.63
"Calcutta",22.57,88.36
"Caldas",6.11,-75.65
"Caldas Novas",-17.74,-48.62
"Calgary",51.05,-114.06
"Caltanissetta",37.5,14.05
"Calumpit",14.91,120.77
"Cam Pha",21.02,107.29
"Cam Ranh",11.9,109.22
"Camacari",-12.7,-38.33
"Camaguey",21.4,-77.91
"Camaqua",-30.84,-51.81
"Camaragibe",-8,-35.04
"Camarillo",34.22,-119.03
"Cambe",-23.23,-51.26
"Camboriu",-26.99,-48.65
"Cambridge",52.21,0.13
"Cambridge",42.38,-71.12
"Camcamal",35.54,44.84
"Camden",39.94,-75.11
"Campana",-34.16,-58.96
"Campeche",19.85,-90.53
"Campina Grande",-7.23,-35.88
"Campinas",-22.91,-47.08
"Campo Bom",-29.58,-51.09
"Campo Grande",-20.45,-54.63
"Campo Largo",-25.44,-49.54
"Campo Limpo Paulista",-23.2,-46.8
"Campo Murao",-24.05,-52.42
"Campobasso",41.57,14.65
"Campos",-21.75,-41.34
"Campos do Jordao",-22.73,-45.59
"Can Tho",10.03,105.78
"Canakkale",40.16,26.41
"Canberra",-35.31,149.13
"Cancun",21.17,-86.83
"Candeias",-12.71,-38.51
"Candelaria",13.93,121.42
"Cangzhou",38.32,116.87
"Cankiri",40.61,33.62
"Cannes",43.56,7.02
"Cannock",52.7,-2.04
"Canoas",-29.92,-51.18
"Canton",42.31,-83.48
"Caocheng",34.82,115.53
"Caohai",26.86,104.28
"Caohe",30.24,115.43
"Cap-Haitien",19.76,-72.2
"Capas",15.33,120.59
"Cape Coast",5.11,-1.25
"Cape Coral",26.64,-82
"Cape Town",-33.93,18.46
"Capelle",51.94,4.58
"Capiata",-25.35,-57.42
"Caracas",10.54,-66.93
"Caraguatatuba",-23.62,-45.43
"Carapicuiba",-23.52,-46.84
"Caratinga",-19.79,-42.14
"Carazinho",-28.29,-52.8
"Carcassonne",43.22,2.34
"Cardenas",23.05,-81.21
"Cardenas",18.01,-93.37
"Cardiff",51.48,-3.18
"Cariacica",-20.23,-40.37
"Carikar",35.02,69.17
"Caringan",-6.7,106.82
"Carlisle",54.91,-2.95
"Carlsbad",33.12,-117.29
"Carltonville",-26.34,27.37
"Carmen",18.63,-91.83
"Carmichael",38.63,-121.32
"Carmona",14.32,121.06
"Carol City",25.94,-80.27
"Carolina",18.34,-65.95
"Carora",10.19,-70.08
"Carpi",44.79,10.87
"Carpina",-7.84,-35.26
"Carrara",44.07,10.07
"Carrefour",18.53,-72.42
"Carrollton",32.99,-96.9
"Carsamba",41.2,36.73
"Carson",33.84,-118.26
"Carson City",39.15,-119.74
"Cartagena",10.4,-75.5
"Cartagena",37.61,-0.98
"Cartago",4.75,-75.91
"Caruaru",-8.28,-35.98
"Carupano",10.67,-63.23
"Casablanca",33.6,-7.62
"Casalnuovo di Napoli",40.92,14.33
"Casas Adobes",32.32,-110.99
"Cascavel",-24.96,-53.46
"Caserta",41.07,14.32
"Casoria",40.9,14.28
"Casper",42.83,-106.33
"Castanhal",-1.29,-47.93
"Castellammare di Stabia",40.7,14.48
"Castelldefels",41.29,1.96
"Castello",39.97,-0.05
"Castlereagh",54.57,-5.87
"Castro Valley",37.71,-122.06
"Castrop-Rauxel",51.55,7.31
"Catacaos",-5.27,-80.68
"Cataguases",-21.39,-42.7
"Catalao",-18.18,-47.95
"Catalina Foothills",32.3,-110.92
"Catamarca",-28.47,-65.78
"Catanduva",-21.14,-48.98
"Catania",37.5,15.08
"Catanzaro",38.9,16.6
"Catbalogan",11.77,124.89
"Cathedral City",33.83,-116.46
"Catia La Mar",10.56,-67.03
"Caucaguita",10.48,-66.74
"Caucaia",-3.74,-38.67
"Caucasia",7.99,-75.21
"Cava de Tirreni",40.7,14.7
"Cava de' Tirreni",40.71,14.69
"Cavite",14.47,120.9
"Caxias",-4.88,-43.38
"Caxias do Sul",-29.18,-51.17
"Cayenne",4.92,-52.34
"Cedar Park",30.51,-97.83
"Cedar Rapids",41.97,-91.67
"Celalabad",40.94,73
"Celaya",20.52,-100.82
"Celle",52.62,10.06
"Centennial",39.6,-104.85
"Centreville",38.85,-77.44
"Cerdanyola",41.49,2.13
"Cerete",8.89,-75.79
"Cergy",49.04,2.07
"Cerignola",41.27,15.88
"Cerkezkoy",41.29,28
"Cerritos",33.87,-118.07
"Cerro de Pasco",-10.69,-76.27
"Cesena",44.15,12.24
"Ceske Budejovice",48.98,14.46
"Ceuta",35.91,-5.3
"Ceyhan",37.04,35.82
"Chaam",12.8,99.97
"Chacao",10.5,-66.85
"Chachoengsao",13.69,101.07
"Chaeryong",38.39,125.62
"Chaguanas",10.52,-61.43
"Chaibasa",22.56,85.8
"Chaihe",44.77,129.68
"Chaiyaphum",15.8,102.04
"Chakdaha",22.48,88.35
"Chakwal",32.93,72.85
"Chalco",19.26,-98.9
"Chalisgaon",20.46,74.99
"Challakere",14.32,76.65
"Chalons-en-Champagne",48.97,4.36
"Chalus",36.66,51.41
"Chaman",30.92,66.44
"Chambery",45.58,5.91
"Champaign",40.11,-88.26
"Champdani",22.81,88.34
"Champigny-sur-Marne",48.82,2.51
"Chamrajnagar",11.92,76.95
"Chandannagar",22.89,88.37
"Chandausi",28.46,78.78
"Chandigarh",30.75,76.78
"Chandkheda",23.15,72.61
"Chandler",33.3,-111.87
"Chandlodiya",23.1,72.56
"Chandpur",23.22,90.67
"Chandpur",29.14,78.27
"Chandrapur",19.96,79.3
"Changanacheri",9.45,76.54
"Changchun",43.87,125.35
"Changde",29.03,111.68
"Changhwa",24.08,120.52
"Changji",44.02,87.32
"Changli",39.71,119.16
"Changling",44.27,123.99
"Changping",40.22,116.2
"Changqing",36.55,116.73
"Changsha",28.2,112.97
"Changsungpo",34.87,128.73
"Changtu",42.78,124.13
"Changwon",35.27,128.62
"Changying",34.06,114.85
"Changzhi",35.22,111.75
"Changzhou",31.78,119.97
"Channapatna",12.66,77.19
"Chanthaburi",12.61,102.11
"Chantilly",38.88,-77.41
"Chaochou",22.55,120.53
"Chaohu",31.6,117.87
"Chaoyang",41.55,120.42
"Chaozhou",23.67,116.64
"Chapaevsk",52.98,49.72
"Chapeco",-27.1,-52.64
"Charallave",10.24,-66.86
"Charkhi Dadri",28.6,76.27
"Charleroi",50.42,4.43
"Charleston",32.79,-79.99
"Charleville-Mezieres",49.75,4.73
"Charlotte",35.2,-80.83
"Charoda",21.23,81.5
"Charsadda",34.16,71.73
"Chateauroux",46.81,1.7
"Chatham",51.38,0.51
"Chattagam",22.33,91.81
"Chattanooga",35.07,-85.26
"Chau Doc",10.71,105.11
"Chauk",20.9,94.82
"Chavakachcheri",9.66,80.16
"Chaykovskiy",56.78,54.15
"Cheadle and Gatley",53.4,-2.24
"Cheboksary",56.13,47.25
"Chechon",37.14,128.22
"Cheektowaga",42.91,-78.75
"Cheju",33.51,126.52
"Chekhov",55.15,37.48
"Chelmsford",51.73,0.47
"Cheltenham",51.9,-2.09
"Chelyabinsk",55.15,61.43
"Chemnitz",50.83,12.92
"Chengalpattu",12.7,79.97
"Chengde",40.96,117.93
"Chengdu",30.67,104.07
"Chenghai",23.47,116.77
"Chengmai",19.74,110.01
"Chengzihe",45.33,131.06
"Chenzhou",25.8,113.03
"Cheremkhovo",53.16,103.07
"Cherepovets",59.13,37.9
"Cherkasy",49.43,32.07
"Cherkessk",44.29,42.06
"Chernihiv",51.5,31.3
"Chernivtsi",48.3,25.93
"Chernogorsk",53.83,91.22
"Cherry Hill",39.9,-75
"Cheruvannur",11.21,75.84
"Chervonohrad",50.38,24.23
"Chesapeake",36.68,-76.31
"Cheshunt",51.71,-0.03
"Chester",53.2,-2.92
"Chesterfield",53.25,-1.42
"Chetumal",18.5,-88.29
"Cheyenne",41.15,-104.79
"Chhapra",25.78,84.72
"Chhatarpur",24.92,79.58
"Chhibramau",27.15,79.52
"Chhindwara",22.07,78.94
"Chiali",23.17,120.17
"Chiang Mai",18.8,98.98
"Chiang Rai",19.91,99.83
"Chiayi",23.48,120.43
"Chiba",35.61,140.11
"Chibuto",-24.68,33.53
"Chicago",41.84,-87.68
"Chichawatni",30.53,72.68
"Chichibu",36,139.09
"Chichicastenango",14.93,-91.12
"Chiclana",36.42,-6.15
"Chiclayo",-6.76,-79.84
"Chico",39.75,-121.81
"Chicoloapan",19.41,-98.92
"Chicopee",42.18,-72.57
"Chicoutimi-Jonquiere",48.43,-71.08
"Chidambaram",11.4,79.68
"Chieti",42.35,14.16
"Chifeng",42.27,118.95
"Chigasaki",35.33,139.41
"Chiguayante",-36.9,-73.04
"Chihu",23.96,120.47
"Chihuahua",28.63,-106.08
"Chik Ballapur",13.47,77.73
"Chikhli",20.35,76.25
"Chikmagalur",13.32,75.76
"Chikushino",33.48,130.52
"Chilakalurupet",16.1,80.16
"Chililabombwe",-12.37,27.82
"Chillan",-36.6,-72.11
"Chilliwack",49.17,-121.96
"Chilmari",25.55,89.72
"Chilpancingo",17.55,-99.5
"Chimalhuacan",19.44,-98.96
"Chimaltenango",14.67,-90.83
"Chimbote",-9.07,-78.6
"Chimoio",-19.12,33.47
"Chinandega",12.63,-87.13
"Chinautla",14.7,-90.5
"Chincha Alta",-13.42,-76.14
"Chinchina",4.98,-75.6
"Chingola",-12.54,27.85
"Chingshui",24.28,120.57
"Chinhae",35.15,128.66
"Chinhoyi",-17.36,30.18
"Chiniot",31.72,72.98
"Chinju",35.19,128.08
"Chino",36,138.15
"Chino",34.01,-117.69
"Chino Hills",33.97,-117.75
"Chintamani",13.4,78.05
"Chioggia",45.22,12.27
"Chipata",-13.63,32.64
"Chiplun",17.53,73.52
"Chirala",15.84,80.35
"Chirchiq",41.45,69.56
"Chirmiri",23.21,82.41
"Chiryu",35.01,137.03
"Chishtian Mandi",29.79,72.84
"Chisinau",47.03,28.83
"Chistopol",55.36,50.64
"Chita",35,136.86
"Chita",52.05,113.46
"Chitose",42.83,141.64
"Chitradurga",14.23,76.39
"Chitrakut Dham",25.2,80.84
"Chittaurgarh",24.89,74.63
"Chittur",13.22,79.1
"Chitungwiza",-18,31.1
"Chivilcoy",-34.9,-60.04
"Chizhou",30.65,117.48
"Chofu",35.65,139.55
"Chokwe",-24.53,32.98
"Cholet",47.07,-0.88
"Choloma",15.61,-87.96
"Cholula",19.06,-98.31
"Choluteca",13.3,-87.2
"Chomun",27.17,75.72
"Chon Buri",13.4,101
"Chonan",36.81,127.16
"Chongjin",41.78,129.78
"Chongju",36.64,127.5
"Chongpyong",39.78,127.39
"Chongqing",29.57,106.58
"Chongup",35.57,126.84
"Chonju",35.83,127.14
"Chopda",21.25,75.28
"Chortoq",41.07,71.81
"Chorzow",50.3,19.03
"Choshi",35.75,140.81
"Chosica",-11.93,-76.71
"Choucheng",29.31,120.06
"Christchurch",-43.53,172.64
"Chuadanga",23.64,88.86
"Chuhar Kana",31.75,73.82
"Chula Vista",32.63,-117.04
"Chulucanas",-5.09,-80.17
"Chumphon",10.51,99.19
"Chunan",24.7,120.92
"Chuncheng",22.18,111.78
"Chunchon",37.86,127.74
"Chungho",24.99,121.5
"Chungju",36.98,127.94
"Chungli",24.96,121.22
"Chunian",30.97,73.97
"Chupei",24.85,121
"Churu",28.31,74.96
"Chushan",23.75,120.66
"Chust",41,71.23
"Chutung",24.73,121.07
"Chuzhou",32.3,118.3
"Ciamis",-7.32,108.35
"Ciampea",-6.55,106.69
"Cianjur",-6.82,107.14
"Cianorte",-23.65,-52.62
"Ciawi",-6.67,106.83
"Cibadak",-6.89,106.78
"Cibeureum",-7.35,108.25
"Cibinong",-6.44,106.84
"Cibitung",-6.27,107.08
"Cicalengka",-6.99,107.83
"Cicero",41.84,-87.76
"Cicuruk",-6.78,106.78
"Cidahu",-6.76,106.72
"Ciego de Avila",21.85,-78.76
"Cienaga",11.01,-74.25
"Cienfuegos",22.16,-80.45
"Cikampek",-6.4,107.46
"Cikarang",-6.27,107.12
"Cikeruh",-6.95,107.76
"Cikupa",-6.23,106.52
"Cilacap",-7.34,109
"Ciledug",-6.86,108.72
"Cilegon",-5.94,106
"Cileungsi",-6.4,106.95
"Cileunyi",-6.93,107.73
"Cimahi",-6.83,107.48
"Cincinnati",39.14,-84.51
"Cinisello Balsamo",45.56,9.17
"Ciomas",-6.6,106.75
"Ciparay",-7,107.64
"Ciputat",-6.23,106.68
"Ciranjang",-6.8,107.22
"Cirebon",-6.71,108.56
"Cirebon Barat",-6.71,108.53
"Cirebon Utara",-6.69,108.54
"Cisaat",-6.9,106.88
"Cisarua",-6.67,106.98
"Citeureup",-6.48,106.86
"Citrus Heights",38.69,-121.29
"Ciudad Bolivar",8.1,-63.6
"Ciudad Guayana",8.37,-62.62
"Ciudad Ojeda",10.26,-71.34
"Ciudad Real",38.98,-3.94
"Ciudad Sandino",12.16,-86.34
"Ciudad Valles",21.98,-99.02
"Ciudad de la Costa",-34.82,-55.95
"Ciudad del Este",-25.42,-54.63
"Civitavecchia",42.09,11.78
"Cizre",37.33,42.2
"Clacton-on-Sea",51.8,1.14
"Clamart",48.8,2.26
"Clarksville",36.56,-87.35
"Clearwater",27.98,-82.77
"Clermont-Ferrand",45.78,3.08
"Cleveland",41.48,-81.68
"Clichy",48.91,2.3
"Clifton",40.86,-74.16
"Clinton",42.59,-82.92
"Clovis",36.82,-119.7
"Cluj-Napoca",46.78,23.59
"Coacalco",19.63,-99.11
"Coari",-4.08,-63.13
"Coatzacoalcos",18.14,-94.42
"Coban",15.47,-90.38
"Cochabamba",-17.38,-66.17
"Coconut Creek",26.28,-80.18
"Coffs Harbour",-30.3,153.12
"Coimbra",40.22,-8.43
"Colatina",-19.54,-40.63
"Colchester",51.88,0.9
"Colima",19.24,-103.73
"Colina",-33.7,-70.77
"Collado Villalba",40.64,-4
"College Station",30.6,-96.31
"Collegno",45.09,7.6
"Colmar",48.08,7.36
"Cologne",50.95,6.97
"Colombes",48.93,2.25
"Colombo",-25.29,-49.24
"Colombo",6.93,79.85
"Colon",22.73,-80.91
"Colon",9.36,-79.9
"Colorado Springs",38.86,-104.76
"Colton",34.06,-117.32
"Columbia",34.04,-80.89
"Columbus",39.99,-82.99
"Comal",-6.92,109.52
"Comayagua",14.46,-87.65
"Comitan",16.25,-92.13
"Comodoro Rivadavia",-45.86,-67.49
"Compton",33.89,-118.23
"Conakry",9.55,-13.67
"Concepcion",-36.83,-73.05
"Concepcion",15.33,120.66
"Concepcion del Uruguay",-32.48,-58.24
"Concord",37.97,-122
"Concordia",-31.39,-58.03
"Concordia",-27.23,-52.03
"Congonhas",-20.5,-43.87
"Conselheiro Lafaiete",-20.67,-43.79
"Consolacion del Sur",22.5,-83.52
"Constanta",44.18,28.63
"Constantine",36.36,6.6
"Contagem",-19.91,-44.1
"Contai",21.79,87.75
"Contramaestre",20.31,-76.24
"Conway",35.09,-92.45
"Coon Rapids",45.17,-93.31
"Copenhagen",55.68,12.57
"Copiapo",-27.36,-70.34
"Coquimbo",-29.96,-71.33
"Coral Springs",26.27,-80.26
"Corby",52.5,-0.73
"Cordoba",-31.4,-64.19
"Cordoba",18.89,-96.92
"Cordoba",37.88,-4.77
"Corlu",41.17,27.8
"Cornella",41.37,2.06
"Corona",33.87,-117.57
"Coronel",-37.03,-73.16
"Coronel Fabriciano",-19.53,-42.64
"Coronel Oviedo",-25.45,-56.44
"Corpus Christi",27.71,-97.29
"Corralillo",22.99,-80.58
"Corrientes",-27.49,-58.81
"Corroios",38.63,-9.15
"Cortazar",20.49,-100.97
"Corum",40.56,34.96
"Corumba",-19.01,-57.64
"Corvallis",44.57,-123.28
"Cosenza",39.29,16.26
"Coslada",40.43,-3.57
"Costa Mesa",33.67,-117.91
"Cotabato",7.23,124.25
"Cotia",-23.6,-46.94
"Cotonou",6.36,2.44
"Cottbus",51.77,14.33
"Cotzumalguapa",14.33,-91.01
"Council Bluffs",41.24,-95.86
"Country Club",25.95,-80.32
"Courbevoie",48.9,2.25
"Coventry",52.42,-1.5
"Cozumel",20.51,-86.95
"Cracow",50.06,19.96
"Craigavon",54.47,-6.42
"Craiova",44.33,23.82
"Cranston",41.77,-71.48
"Crateus",-5.18,-40.67
"Crato",-7.23,-39.42
"Crawley",51.13,-0.2
"Cremona",45.15,10.01
"Creteil",48.79,2.45
"Crewe",53.08,-2.45
"Criciuma",-28.68,-49.39
"Crosby",53.5,-3.03
"Crotone",39.09,17.12
"Cruz Alta",-28.64,-53.62
"Cruzeiro",-22.57,-44.97
"Cuamba",-14.79,36.54
"Cuauhtemoc",28.42,-106.87
"Cuautitlan",19.67,-99.18
"Cuautitlan Izcalli",19.65,-99.25
"Cuautla",18.82,-98.96
"Cubatao",-23.89,-46.42
"Cubuk",40.25,33.03
"Cucuta",7.88,-72.51
"Cuddapah",14.48,78.81
"Cuenca",-2.9,-79.01
"Cuernavaca",18.92,-99.25
"Cuiaba",-15.61,-56.09
"Cuiluan",47.73,128.66
"Cukai",4.23,103.45
"Culiacan",24.8,-107.39
"Cumana",10.45,-64.18
"Cuneo",44.39,7.54
"Cupertino",37.31,-122.05
"Curepipe",-20.31,57.51
"Curico",-34.98,-71.24
"Curitiba",-25.42,-49.29
"Curug",-6.25,106.55
"Curvelo",-18.76,-44.43
"Cusco",-13.52,-71.99
"Cuxhaven",53.87,8.69
"Cuyahoga Falls",41.17,-81.52
"Cyangugu",-2.48,28.9
"Czestochowa",50.81,19.13
"Da Lat",11.96,108.44
"Da Nang",16.07,108.21
"Dabhoi",22.13,73.41
"Dabou",5.32,-4.39
"Dabra",25.9,78.33
"Dabrowa Gornicza",50.33,19.18
"Dabwali",29.95,74.73
"Dadiangas",6.1,125.25
"Dadri",28.57,77.55
"Dafeng",33.2,120.43
"Dagupan",16.1,120.52
"Dahod",22.84,74.25
"Dahuk",36.85,43.02
"Daipo",22.45,114.16
"Daito",34.71,135.62
"Dakar",14.72,-17.48
"Dakovica",42.39,20.43
"Dale City",38.65,-77.34
"Dalian",38.92,121.65
"Daliang",22.84,113.25
"Dalianwan",39.02,121.68
"Dalinghe",41.18,121.36
"Dallas",32.79,-96.77
"Daloa",6.89,-6.45
"Daltenganj",24.05,84.06
"Daluguma",6.97,79.9
"Daly City",37.69,-122.47
"Damanhoor",31.04,30.47
"Damar",14.56,44.39
"Damascus",33.5,36.32
"Damaturu",11.75,11.96
"Dambulla",7.85,80.65
"Damghan",36.17,54.35
"Damietta",31.42,31.82
"Damoh",23.85,79.44
"Damurhuda",23.61,88.79
"Danane",7.26,-8.16
"Danao",10.52,124.03
"Danbury",41.4,-73.47
"Dancheng",33.64,115.19
"Dandeli",15.25,74.63
"Dandong",40.13,124.4
"Dangtu",31.55,118.49
"Danjiangkou",32.55,111.5
"Danshui",22.8,114.46
"Daokou",35.58,114.5
"Daosa",26.88,76.33
"Dapitan",8.66,123.43
"Daqiao",29.66,121.4
"Dar Siyuh",34.9,3.48
"Dar es Salaam",-6.82,39.28
"Dar'a",32.63,36.1
"Darab",28.75,54.54
"Darayya",33.43,36.25
"Darbhanga",26.16,85.88
"Darhan",46.63,109.4
"Dariyan",36.69,7.75
"Darjiling",27.05,88.26
"Darlington",54.52,-1.57
"Darmstadt",49.87,8.64
"Darnah",32.77,22.64
"Dartford",51.44,0.22
"Darwin",-12.43,130.85
"Dasarahalli",13.01,77.49
"Dashiqiao",40.64,122.5
"Dashitou",43.3,128.5
"Daska",32.33,74.36
"Dasmarinas",14.33,120.93
"Dasoguz",41.85,59.96
"Datia",25.67,78.45
"Datong",40.08,113.3
"Daugavpils",55.88,26.51
"Daule",-1.86,-79.98
"Daura",11.53,11.45
"Davanagere",14.46,75.92
"Davao",7.11,125.63
"Davenport",41.56,-90.6
"David",8.44,-82.43
"Davie",26.08,-80.29
"Davis",38.55,-121.74
"Dawan",30.91,104.21
"Dawei",14.09,98.2
"Dawukou",39.02,106.36
"Daxian",31.27,107.52
"Dayan",49.75,120.05
"Dayeuh Kolot",-6.98,107.62
"Dayong",29.13,110.47
"Dayr al-Balah",31.42,34.35
"Dayr az-Zawr",35.33,40.13
"Dayroot",27.56,30.81
"Dayton",39.78,-84.2
"Daytona Beach",29.19,-81.05
"Dazaifu",33.51,130.52
"Dearborn",42.31,-83.21
"Dearborn Heights",42.33,-83.27
"Debre Birhan",9.68,39.53
"Debre Mark'os",10.34,37.72
"Debre Zeyit",8.75,38.99
"Debrecen",47.54,21.63
"Decatur",39.85,-88.93
"Decin",50.78,14.19
"Deerfield Beach",26.31,-80.12
"Deh Dasht",30.79,50.55
"Dehiwala-Mount Lavinia",6.85,79.87
"Dehra Dun",30.34,78.05
"Dehri",24.91,84.18
"Dehui",44.53,125.7
"Dekernes",31.08,31.6
"Delft",52.01,4.36
"Delgado",13.72,-89.17
"Delhi",28.67,77.21
"Delicias",28.19,-105.47
"Delmas",18.55,-72.28
"Delmas",-26.14,28.68
"Delmenhorst",53.06,8.64
"Delray Beach",26.45,-80.09
"Deltona",28.91,-81.21
"Den Helder",52.96,4.75
"Dengfeng",34.46,113.01
"Dengzhou",37.82,120.74
"Denizli",37.78,29.08
"Denov",38.28,67.89
"Denpasar",-8.65,115.22
"Denton",33.21,-97.13
"Denver",39.77,-104.87
"Deoband",29.7,77.67
"Deolali",19.95,73.84
"Deoli",28.49,77.22
"Deoria",26.51,83.78
"Depok",-6.39,106.83
"Deqing",30.55,120.08
"Dera Ghazi Khan",30.06,70.64
"Dera Ismail Khan",31.83,70.9
"Derbent",42.06,48.29
"Derby",52.92,-1.5
"Des Moines",41.58,-93.62
"Des Plaines",42.03,-87.9
"Deshna",26.12,32.47
"Dessau",51.83,12.22
"Desuk",31.13,30.64
"Detmold",51.95,8.88
"Detroit",42.38,-83.1
"Devghar",24.49,86.69
"Dewas",22.97,76.05
"Dewsbury",53.7,-1.66
"Deyang",31.13,104.4
"Dezful",32.38,48.47
"Dezhou",37.45,116.3
"Dhaka",23.7,90.39
"Dhamtari",20.71,81.55
"Dhanbad",23.8,86.42
"Dhangadhi",28.69,80.59
"Dharan",26.81,87.26
"Dharapuram",10.74,77.52
"Dharmapuri",12.13,78.16
"Dharmavaram",14.42,77.71
"Dhaulpur",26.7,77.87
"Dhenkanal",20.67,85.6
"Dholka",22.74,72.44
"Dhoraji",21.74,70.44
"Dhrangadhra",23,71.46
"Dhuburi",26.03,89.97
"Dhule",20.9,74.77
"Dhulian",24.68,87.97
"Dhuri",30.37,75.87
"Diadema",-23.69,-46.61
"Diamond Bar",34,-117.81
"Dias d'Avila",-12.61,-38.3
"Dibrugarh",27.49,94.91
"Didao",45.33,130.87
"Didwana",27.39,74.57
"Diglur",18.55,77.6
"Digos",6.76,125.35
"Dijon",47.33,5.03
"Dilli Cantonment",28.57,77.16
"Dimapur",25.92,93.73
"Dimbokro",6.65,-4.71
"Dimitrovgrad",54.25,49.55
"Dinajpur",25.63,88.64
"Dinalupihan",14.88,120.46
"Dinapur",25.64,85.04
"Dindigul",10.36,77.97
"Dinghai",30.02,122.1
"Dingshu",31.37,119.83
"Dingtao",35.07,115.56
"Dingzhou",38.51,114.98
"Dinslaken",51.58,6.73
"Diourbel",14.66,-16.24
"Dipalpur",30.67,73.66
"Diphu",25.84,93.43
"Dipolog",8.59,123.35
"Dire Dawa",9.59,41.86
"Divinopolis",-20.15,-44.9
"Diyarb Najm",30.75,31.44
"Diyarbakir",37.92,40.23
"Djang",5.46,10.05
"Djougou",9.7,1.68
"Dmitrov",56.35,37.52
"Dniprodzerzhyns'k",48.5,34.62
"Dnipropetrovs'k",48.45,34.98
"Do Gonbadan",30.36,50.78
"Do Rud",33.49,49.05
"Dobric",43.58,27.83
"Dod Ballapur",13.3,77.52
"Dodoma",-6.17,35.74
"Doetinchem",51.97,6.28
"Dogubeyazit",39.54,44.08
"Dolgoprudnyy",55.93,37.51
"Dolores Hidalgo",21.17,-100.93
"Domodedovo",55.43,37.75
"Doncaster",53.53,-1.12
"Dondo",-19.62,34.73
"Donetsk",48,37.82
"Dongchang",41.73,125.93
"Dongcun",36.78,121.16
"Dongdu",35.85,117.7
"Dongfeng",42.67,125.52
"Donggongon",5.92,116.08
"Dongguan",23.05,113.73
"Donghai",22.95,115.63
"Dongkan",34,119.83
"Dongli",20.84,110.37
"Dongling",41.82,123.56
"Dongning",44.06,131.12
"Dongshan",23.74,117.5
"Dongsheng",39.81,109.99
"Dongtai",32.85,120.3
"Dongying",37.5,118.52
"Dongzhen",22.36,110.94
"Dordrecht",51.8,4.67
"Dormagen",51.08,6.84
"Dorsten",51.67,6.97
"Dortmund",51.51,7.48
"Dortyol",36.86,36.22
"Dos Hermanas",37.28,-5.93
"Dos Quebradas",4.83,-75.67
"Dosso",13.05,3.2
"Dothan",31.24,-85.41
"Douala",4.06,9.71
"Dourados",-22.23,-54.81
"Downey",33.94,-118.13
"Drammen",59.75,10.2
"Drancy",48.94,2.46
"Dresden",51.05,13.74
"Drobeta-Turnu Severin",44.64,22.66
"Drohobych",49.35,23.5
"Drummondville",45.89,-72.49
"Druzhkivka",48.62,37.55
"Dubai",25.27,55.33
"Dublin",53.33,-6.25
"Dubna",56.75,37.15
"Dubuque",42.5,-90.69
"Ducheng",23.25,111.52
"Dudley",52.5,-2.08
"Duisburg",51.43,6.75
"Duitama",5.83,-73.02
"Dukuhturi",-6.9,109.08
"Duluth",46.78,-92.12
"Dum Dum",22.63,88.42
"Dumaguete",9.32,123.31
"Dumai",1.68,101.45
"Dumraon",25.55,84.15
"Dunaujvaros",46.98,18.93
"Dundalk",39.27,-76.5
"Dundee",-28.16,30.23
"Dundee",56.47,-3
"Dunedin",-45.88,170.48
"Dungun",3.22,101.32
"Dunhua",43.35,128.22
"Dunkirk",51.04,2.34
"Dunstable",51.89,-0.54
"Duobao",30.65,112.63
"Duque de Caxias",-22.77,-43.31
"Durango",24.03,-104.67
"Durban",-29.87,30.99
"Duren",50.81,6.49
"Durgapur",23.5,87.31
"Durham",35.98,-78.91
"Durres",41.33,19.45
"Dushanbe",38.57,68.78
"Dusseldorf",51.24,6.79
"Duyun",26.27,107.52
"Duzce",40.85,31.15
"Duzici",37.23,36.51
"Dymytrov",48.27,37.28
"Dzerzhinsk",56.24,43.46
"Eagan",44.82,-93.16
"East Hartford",41.76,-72.62
"East Kilbride",55.77,-4.18
"East London",-32.97,27.87
"East Los Angeles",34.03,-118.17
"East Orange",40.77,-74.21
"East Providence",41.8,-71.36
"Eastbourne",50.78,0.27
"Eastleigh",50.97,-1.35
"Eau Claire",44.82,-91.49
"Ebetsu",43.12,141.55
"Ebina",35.47,139.42
"Ebolowa",2.93,11.14
"Ebshowai",29.37,30.68
"Ecatepec",19.6,-99.05
"Edathala",10.03,76.32
"Eden Prairie",44.85,-93.46
"Edinburg",26.3,-98.16
"Edinburgh",55.95,-3.22
"Edirne",41.69,26.56
"Edison",40.53,-74.37
"Edmond",35.67,-97.41
"Edmonton",53.57,-113.54
"Effium",6.63,8.07
"Efon Alaye",7.67,4.88
"Eha Amufu",6.66,7.75
"Eindhoven",51.44,5.47
"Ejido",8.56,-71.23
"Ejigbo",7.9,4.32
"Ekibastuz",51.73,75.32
"Ekpoma",6.75,6.13
"El Alto",-16.5,-68.17
"El Arish",31.13,33.8
"El Asher men Ramadan",30.28,31.74
"El Badrashin",29.85,31.27
"El Banco",9,-73.98
"El Cafetal",10.43,-66.83
"El Cajon",32.8,-116.96
"El Carmen",-1.32,-80.02
"El Ejido",36.79,-2.83
"El Faiyum",29.31,30.84
"El Gamalia",31.19,31.85
"El Harga",25.44,30.55
"El Hatillo",10.44,-66.82
"El Jadida",33.26,-8.51
"El Kanater el Khira",30.2,31.13
"El Kelaa Des Sraghna",32.06,-7.42
"El Khanka",30.21,31.36
"El Korin",30.61,31.73
"El Limon",10.3,-67.63
"El Mahalla el Kubra",30.97,31.17
"El Mansha",26.47,31.81
"El Mansura",31.04,31.38
"El Mante",22.73,-98.97
"El Manzala",31.16,31.93
"El Monte",34.07,-118.03
"El Paso",31.85,-106.44
"El Prat de Llobregat",41.34,2.08
"El Progreso",15.4,-87.82
"El Puerto de Santa Maria",36.61,-6.23
"El Qoseyia",27.43,30.82
"El Senbelaween",30.88,31.45
"El Tal el Kebeer",30.55,31.78
"El Tigre",8.89,-64.26
"El Tocuyo",9.78,-69.8
"El Viejo",12.67,-87.18
"El Vigia",8.63,-71.65
"El Zagazig",30.58,31.5
"Elazig",38.68,39.23
"Elbasan",41.12,20.09
"Elbistan",38.21,37.21
"Elblag",54.18,19.4
"Eldorado",-26.2,-54.6
"Eldoret",0.52,35.27
"Elektrostal",55.79,38.44
"Elgin",42.04,-88.29
"Eli Bayramli",39.93,48.91
"Elista",46.32,44.21
"Elizabeth",40.67,-74.19
"Elk Grove",38.4,-121.37
"Elkhart",41.69,-85.97
"Ellesmere Port",53.29,-2.91
"Ellicott City",39.27,-76.83
"Eloy Alfaro",-2.17,-79.83
"Eluru",16.72,81.11
"Elyria",41.38,-82.11
"Embalenhle",-26.53,29.06
"Embu-Guacu",-23.82,-46.8
"Emden",53.37,7.21
"Emmen",52.79,6.9
"Emnambithi",-28.55,29.78
"Emure",7.45,5.47
"Encarnacion",-27.33,-55.88
"Encheng",22.19,112.3
"Encinitas",33.05,-117.26
"Endasilasie",14.1,38.28
"Enerhodar",47.5,34.47
"Engels",51.5,46.12
"Eniwa",42.89,141.57
"Enschede",52.22,6.89
"Ensenada",31.87,-116.62
"Enshi",30.28,109.47
"Entebbe",0.06,32.46
"Enugu",6.33,7.5
"Enugu Ukwu",6.17,7
"Envigado",6.16,-75.56
"Epsom and Ewell",51.33,-0.29
"Epumalanga",-29.82,30.61
"Epworth",-17.89,31.15
"Erbaa",40.67,36.57
"Ercis",39.03,43.37
"Ercolano",40.8,14.34
"Erdaojiang",41.79,126.03
"Erdenet",49.03,104.08
"Erechim",-27.63,-52.27
"Eregli",37.51,34.05
"Erftstadt",50.81,6.76
"Erfurt",50.99,11.03
"Ergani",38.27,39.76
"Erhlin",23.9,120.37
"Erin-Oshogbo",7.81,4.48
"Erlangen",49.6,11.01
"Erode",11.35,77.73
"Errachidia",31.94,-4.45
"Eruwa",7.55,3.45
"Erzincan",39.74,39.5
"Erzurum",39.91,41.29
"Esbjerg",55.47,8.45
"Eschweiler",50.83,6.27
"Escondido",33.14,-117.07
"Escuintla",14.3,-90.78
"Esenyurt",41.03,28.67
"Esfahan",32.68,51.68
"Esfarayen",37.1,57.5
"Esher-Molesey",51.38,-0.36
"Esikhawini",-28.88,31.9
"Eskilstuna",59.37,16.51
"Eskisehir",39.79,30.52
"Eslamabad",34.32,47.12
"Eslamshahr",35.54,51.2
"Esmeraldas",-19.75,-44.32
"Esmeraldas",0.95,-79.67
"Espinal",4.16,-74.89
"Espoo",60.21,24.66
"Essaouira",31.52,-9.77
"Essen",51.47,7
"Esslingen",48.74,9.32
"Estancia",-11.27,-37.45
"Esteio",-29.83,-51.17
"Esteli",13.09,-86.36
"Estepona",36.44,-5.16
"Etawah",26.78,79.01
"Etiti",5.62,7.35
"Eugene",44.05,-123.11
"Euless",32.85,-97.08
"Eunapolis",-16.36,-39.58
"Euosmon",40.67,22.91
"Euskirchen",50.66,6.79
"Evanston",42.05,-87.69
"Evansville",37.98,-87.54
"Everett",47.96,-122.2
"Evreux",49.03,1.14
"Exeter",50.73,-3.54
"Ezhou",30.4,114.83
"Facatativa",4.82,-74.37
"Faenza",44.29,11.87
"Fairfield",38.25,-122.04
"Faisalabad",31.41,73.11
"Faizabad",26.78,82.14
"Fakoos",30.74,31.8
"Falavarjan",32.57,51.49
"Fall River",41.71,-71.11
"Falmouth",41.55,-70.6
"Fangshan",39.69,115.96
"Faraskoor",31.33,31.72
"Fareham",50.85,-1.19
"Farg'ona",40.39,71.78
"Fargo",46.88,-96.82
"Faridabad",28.38,77.3
"Faridkot",30.68,74.74
"Faridpur",23.61,89.85
"Faridpur",28.22,79.53
"Farmington Hills",42.49,-83.38
"Farnborough",51.3,-0.76
"Farroupilha",-29.23,-51.35
"Farrukhabad",27.4,79.57
"Farshoot",26.05,32.16
"Fastiv",50.08,29.92
"Fatehabad",29.52,75.45
"Fatehpur",25.93,80.81
"Fatsa",41.03,37.49
"Fayetteville",35.07,-78.9
"Fazilka",30.41,74.02
"Federal Way",47.31,-122.34
"Feicheng",35.27,117.95
"Feira de Santana",-12.25,-38.97
"Fengcheng",40.46,124.06
"Fengkou",30.08,113.26
"Fengrun",39.83,118.12
"Fengshan",22.63,120.35
"Fengxian",34.7,116.59
"Fengyuan",23.93,120.3
"Fengzhen",40.45,113.14
"Fenyi",27.81,114.67
"Feodosiya",45.03,35.38
"Ferkessedougou",9.6,-5.2
"Fernando de la Mora",-25.32,-57.59
"Fernandopolis",-20.27,-50.26
"Ferozwala",29.02,71.88
"Ferrara",44.84,11.61
"Ferraz de Vasconcelos",-23.54,-46.37
"Ferrol",43.49,-8.24
"Fethiye",36.62,29.11
"Fianarantsoa",-21.45,47.07
"Fiditi",7.7,3.91
"Firindah",35.06,1.04
"Firozabad",27.15,78.39
"Firozpur",30.92,74.61
"Firozpur Cantonment",30.95,74.6
"Firuzabad",28.87,52.6
"Fishers",39.95,-86.02
"Fiumicino",41.77,12.23
"Flagstaff",35.19,-111.62
"Flensburg",54.79,9.42
"Flint",43.02,-83.69
"Florence",43.78,11.24
"Florence-Graham",33.97,-118.24
"Florencia",1.61,-75.62
"Florianopolis",-27.6,-48.54
"Florida",21.54,-78.23
"Floridablanca",7.06,-73.09
"Florissant",38.8,-90.32
"Flower Mound",33.03,-97.09
"Fnidq",35.85,-5.35
"Fochville",-26.47,27.5
"Focsani",45.7,27.18
"Foggia",41.47,15.55
"Foligno",42.96,12.7
"Folsom",38.68,-121.15
"Fontana",34.1,-117.46
"Fontenay-sous-Bois",48.85,2.5
"Forli",44.22,12.03
"Formiga",-20.46,-45.43
"Formosa",-26.18,-58.18
"Formosa",-15.54,-47.34
"Fort Beaufort",-32.77,26.63
"Fort Collins",40.56,-105.07
"Fort Lauderdale",26.14,-80.14
"Fort Myers",26.63,-81.85
"Fort Smith",35.37,-94.38
"Fort Wayne",41.07,-85.14
"Fort Worth",32.75,-97.34
"Fort-de-France",14.6,-61.08
"Fortaleza",-3.78,-38.59
"Foshan",23.03,113.12
"Foumban",5.73,10.9
"Foumbot",5.52,10.63
"Fountain Valley",33.71,-117.95
"Fountainbleau",25.77,-80.35
"Foz do Iguacu",-25.55,-54.58
"Fquih Ben Salah",32.51,-6.7
"Framingham",42.31,-71.44
"Franca",-20.53,-47.39
"Francisco Beltrao",-26.07,-53.07
"Francisco Morato",-23.27,-46.75
"Francistown",-21.17,27.5
"Franco da Rocha",-23.33,-46.72
"Frankfurt",50.12,8.68
"Franklin",35.93,-86.84
"Frederick",39.43,-77.42
"Fredericton",45.96,-66.66
"Freetown",8.49,-13.24
"Freiburg",47.99,7.85
"Frejus",43.45,6.73
"Fremont",37.53,-122
"Fresnillo",23.17,-102.86
"Fresno",36.78,-119.79
"Friedrichshafen",47.66,9.48
"Frisco",33.14,-96.81
"Frontera",26.93,-101.45
"Fryazino",55.95,38.05
"Frydek-Mistek",49.69,18.33
"Fuchu",35.67,139.48
"Fuengirola",36.55,-4.64
"Fuenlabrada",40.27,-3.8
"Fujieda",34.88,138.26
"Fujiidera",34.57,135.6
"Fujimi",35.87,139.54
"Fujin",47.27,132.02
"Fujinomiya",35.22,138.61
"Fujioka",36.25,139.09
"Fujisawa",35.33,139.47
"Fujiyoshida",35.5,138.8
"Fukaya",36.21,139.28
"Fukuchiyama",35.3,135.12
"Fukui",36.08,136.22
"Fukuoka",33.59,130.41
"Fukuroi",34.75,137.93
"Fukushima",37.75,140.47
"Fukuyama",34.5,133.37
"Fulbaria",24.62,90.73
"Fulda",50.55,9.69
"Fuling",29.72,107.35
"Fulitun",46.81,131.24
"Fullerton",33.88,-117.93
"Funabashi",35.7,139.99
"Funchal",32.65,-16.9
"Fundacion",10.53,-74.19
"Funtua",11.53,7.31
"Funza",4.71,-74.21
"Furth",49.48,10.98
"Furukawa",38.57,140.96
"Fusagasuga",4.34,-74.37
"Fushan",37.5,121.25
"Fushun",41.87,123.88
"Fussa",35.74,139.33
"Futtsu",35.31,139.83
"Fuxin",42.01,121.65
"Fuyang",32.9,115.82
"Fuzhou",26.08,119.3
"GaRankuwa",-25.62,27.98
"Gaborone",-24.65,25.91
"Gabrovo",42.9,25.31
"Gadag",15.44,75.63
"Gaddiannaram",17.36,78.52
"Gadwal",16.23,77.8
"Gagnoa",6.15,-5.88
"Gainesville",29.67,-82.34
"Gaithersburg",39.14,-77.22
"Gajraula",28.85,78.23
"Galati",45.44,28.04
"Galatsion",38.02,23.75
"Galesong",-5.31,119.36
"Galizan",35.75,0.55
"Galka'yo",6.78,47.42
"Gallarate",45.68,8.78
"Galle",6.05,80.21
"Galveston",29.3,-94.81
"Galway",53.28,-9.06
"Gamagori",34.84,137.23
"Gamboru",12.37,14.22
"Gamping",-7.78,110.31
"Gandajika",-6.74,23.96
"Gandhidham",23.07,70.13
"Gandhinagar",23.3,72.63
"Gandia",38.98,-0.18
"Ganga Ghat",26.52,80.45
"Ganganagar",29.93,73.86
"Gangapur",26.47,76.72
"Gangarampur",25.4,88.52
"Gangawati",15.44,76.52
"Gangdong",38.88,117.61
"Gangoh",29.77,77.25
"Gannan",47.92,123.51
"Gantou",26.2,119.53
"Ganzhou",25.95,114.93
"Gaogou",34.02,119.19
"Gaomi",36.39,119.75
"Gaoyou",32.78,119.43
"Gaozhou",21.93,110.84
"Gapan",15.31,120.94
"Garanhuns",-8.89,-36.5
"Garbsen",52.42,9.59
"Gardayah",32.49,3.67
"Garden Grove",33.78,-117.96
"Gardena",33.89,-118.3
"Gardez",33.6,69.22
"Garissa",-0.44,39.67
"Garland",32.91,-96.63
"Garmsar",35.22,52.33
"Garoua",9.3,13.39
"Garowe",8.41,48.48
"Garue",-15.46,36.98
"Garulia",22.83,88.37
"Garut",-7.21,107.9
"Garyan",32.17,13.02
"Garza Garcia",25.66,-100.38
"Gashua",12.88,11.04
"Gastonia",35.25,-81.17
"Gatchina",59.57,30.13
"Gateshead",54.97,-1.62
"Gavle",60.69,17.13
"Gaybanda",25.33,89.54
"Gayespur",22.98,88.51
"Gaziantep",37.07,37.39
"Gazipur",23.8,90.65
"Gazni",33.56,68.42
"Gazzah",31.53,34.44
"Gbadolite",4.29,21.02
"Gboko",7.33,8.9
"Gbongan",7.47,4.35
"Gdansk",54.36,18.64
"Gdynia",54.52,18.53
"Gebze",40.81,29.44
"Gedangan",-7.38,112.71
"Geelong",-38.14,144.32
"Gejiu",23.38,103.15
"Gelendzhik",44.57,38.07
"Gelsenkirchen",51.51,7.11
"Gelugor",5.48,100.5
"Gemena",3.26,19.77
"Gemlik",40.43,29.15
"Gence",40.68,46.35
"General Escobedo",25.82,-100.33
"General Pico",-35.66,-63.77
"General Roca",-39.02,-67.61
"General Trias",14.39,120.88
"Geneva",46.21,6.14
"Genhe",50.77,121.53
"Genoa",44.42,8.93
"Genteng",-8.36,114.14
"George",-33.95,22.45
"Georgetown",6.79,-58.16
"Georgetown",5.37,100.31
"Georgievsk",44.15,43.47
"Georgiu-Dezh",50.98,39.56
"Gerga",26.33,31.88
"Germantown",39.18,-77.26
"Getafe",40.3,-3.73
"Getxo",43.36,-3
"Ghakar",32.3,74.14
"Ghatal",22.67,87.72
"Ghatlodiya",23.05,72.55
"Ghaziabad",28.66,77.41
"Ghazipur",25.59,83.59
"Ghotki",28.01,69.32
"Giessen",50.58,8.68
"Gijon",43.53,-5.67
"Gilbert",33.33,-111.76
"Gillingham",51.39,0.55
"Gingoog",8.83,125.13
"Ginowan",26.3,127.79
"Girardot",4.31,-74.81
"Giresun",40.92,38.39
"Giron",7.07,-73.17
"Girona",41.98,2.81
"Gisenyi",-1.69,29.26
"Gitarama",-2.07,29.76
"Giugliano in Campania",40.93,14.19
"Giurgiu",43.9,25.97
"Gizeh",30.01,31.21
"Gladbeck",51.58,6.98
"Glasgow",55.87,-4.27
"Glazov",58.14,52.66
"Glendale",33.58,-112.2
"Glendora",34.15,-117.84
"Glifada",37.87,23.75
"Gliwice",50.31,18.67
"Glogow",51.67,16.08
"Gloucester",51.86,-2.24
"Gniezno",52.53,17.61
"Gnjilane",42.47,21.48
"Goaigoaza",10.42,-67.96
"Gobindgarh",30.66,76.31
"Godean",-7.77,110.3
"Godhra",22.77,73.6
"Gohad",26.43,78.45
"Gohana",29.13,76.7
"Goiania",-16.72,-49.26
"Gojra",31.15,72.69
"Gokak",16.18,74.81
"Gokalpur",28.71,77.28
"Gola Gokarannath",28.08,80.47
"Golara",32.63,51.44
"Golcuk",40.72,29.82
"Gold Coast",-28.07,153.44
"Gombak Setia",3.3,101.7
"Gombe",10.29,11.17
"Gomez Palacio",25.57,-103.5
"Gonaives",19.45,-72.69
"Gonbad-e Qabus",37.25,55.17
"Gonda",27.14,81.95
"Gondal",21.97,70.8
"Gondar",12.61,37.46
"Gondiya",21.47,80.2
"Gongzhuling",43.51,124.81
"Gopalapatnam",17.82,83.22
"Gopalganj",23.02,89.8
"Gopalganj",26.47,84.43
"Gopalpur",24.54,89.8
"Gopichettipalaiyam",11.46,77.43
"Goppingen",48.71,9.66
"Gorakhpur",26.76,83.36
"Gorgan",36.83,54.48
"Gorlitz",51.16,14.98
"Gorno-Altaysk",51.96,85.96
"Gorontalo",0.56,123.06
"Gorzow Wielkopolski",52.74,15.23
"Gosport",50.8,-1.14
"Gostivar",41.8,20.92
"Goteborg",57.72,12.01
"Gotemba",35.31,138.93
"Gottingen",51.53,9.92
"Gouda",52.02,4.7
"Governador Valadares",-18.87,-41.97
"Graaff-Reinet",-32.3,24.54
"Grahamstown",-33.3,26.52
"Granada",11.94,-85.96
"Granada",37.17,-3.59
"Granby",45.41,-72.73
"Grand Bassam",5.2,-3.75
"Grand Prairie",32.69,-97.02
"Grand Rapids",42.96,-85.66
"Granollers",41.61,2.28
"Grapevine",32.93,-97.07
"Gravata",-8.19,-35.55
"Gravatai",-29.95,-50.99
"Gravesend",51.44,0.39
"Grays",51.48,0.32
"Greasby",53.39,-3.12
"Great Falls",47.5,-111.29
"Great Yarmouth",52.59,1.71
"Greeley",40.42,-104.74
"Green Bay",44.52,-87.99
"Greensboro",36.08,-79.83
"Greenville",35.6,-77.37
"Greenwich",41.04,-73.59
"Greifswald",54.09,13.39
"Grenoble",45.19,5.72
"Gresham",45.5,-122.44
"Gresik",-7.16,112.66
"Grevenbroich",51.1,6.57
"Grimsby",53.57,-0.11
"Grogol",-7.59,110.8
"Groningen",53.23,6.57
"Grosseto",42.77,11.1
"Groznyy",43.31,45.7
"Grudziadz",53.49,18.75
"Guacara",10.24,-67.89
"Guadalajara",20.67,-103.35
"Guadalajara",40.64,-3.17
"Guadalupe",25.68,-100.26
"Guaiba",-30.11,-51.32
"Gualeguaychu",-33.02,-58.52
"Guamuchil",25.47,-108.09
"Guanajuato",21.02,-101.28
"Guanambi",-14.23,-42.79
"Guanare",9.05,-69.75
"Guangkou",31,103.62
"Guangshui",31.62,114
"Guangyuan",32.43,105.87
"Guangzhou",23.12,113.25
"Guanjiao",22.96,112.97
"Guantanamo",20.15,-75.22
"Guarapari",-20.66,-40.5
"Guarapuava",-25.38,-51.48
"Guaratingueta",-22.82,-45.19
"Guarenas",10.47,-66.62
"Guaruja",-24,-46.27
"Guarulhos",-23.46,-46.49
"Guasave",25.57,-108.47
"Guatemala",14.63,-90.55
"Guatire",10.47,-66.53
"Guayaquil",-2.21,-79.9
"Guaymas",27.92,-110.91
"Guaynabo",18.39,-66.11
"Gubkin",51.28,37.39
"Gucheng",32.26,111.64
"Gudalur",11.76,79.75
"Gudivada",16.44,81
"Gudiyattam",12.95,78.86
"Gudur",14.15,79.84
"Guelmim",28.98,-10.07
"Guelph",43.56,-80.26
"Guercif",34.24,-3.36
"Guicheng",23.1,109.59
"Guider",9.93,13.94
"Guidonia",42.02,12.68
"Guigue",10.08,-67.78
"Guiguinto",14.83,120.88
"Guihu",30.84,104.15
"Guildford",51.24,-0.58
"Guilin",25.28,110.28
"Guines",22.84,-82.03
"Guira de Melena",22.8,-82.5
"Guiren",33.67,118.19
"Guiyang",26.58,106.72
"Gujar Khan",33.26,73.3
"Gujranwala",32.16,74.18
"Gujrat",32.58,74.07
"Gukovo",48.06,39.94
"Gulariya",28.24,81.33
"Gulbarga",17.34,76.82
"Gulfport",30.39,-89.07
"Guliston",40.5,68.79
"Gummersbach",51.04,7.57
"Guntakal",15.18,77.37
"Guntur",16.31,80.44
"Gunung Putri",-6.45,106.87
"Guozhen",34.35,107.38
"Gurdaspur",32.04,75.4
"Gurgaon",28.47,77.01
"Gurian",34.34,61.47
"Gurupi",-11.72,-49.06
"Gus-Khrustalnyy",55.62,40.67
"Gusau",12.17,6.66
"Gushi",32.18,115.67
"Gushikawa",26.36,127.87
"Gutersloh",51.91,8.37
"Guwahati",26.19,91.75
"Guyguqey",44.89,37.32
"Guyong",14.84,120.98
"Guzman",19.71,-103.46
"Gwadar",25.14,62.33
"Gwalior",26.23,78.17
"Gweru",-19.45,29.82
"Gyoda",36.14,139.47
"Gyumri",40.78,43.83
"Ha Dong",20.97,105.77
"Ha Noi",21.03,105.84
"Ha'il",27.53,41.7
"Haarlem",52.39,4.62
"Haarlemmermeer",52.3,4.7
"Habiganj",24.38,91.41
"Habikino",34.56,135.61
"Habra",22.84,88.62
"Hachinohe",40.52,141.53
"Hachioji",35.66,139.33
"Hacienda Heights",34,-117.97
"Hadali",32.64,74.57
"Hadano",35.37,139.23
"Hadejia",12.46,10.04
"Hadera",32.45,34.92
"Haeju",38.04,125.71
"Hafar al-Batin",28.43,45.96
"Hafizabad",32.07,73.68
"Hagen",51.37,7.46
"Hagonoy",14.83,120.69
"Hai Duong",20.96,106.32
"Hai Phong",20.86,106.68
"Haian",32.55,120.44
"Haibowan",39.66,106.8
"Haicheng",40.86,122.74
"Haifa",32.82,34.99
"Haikou",20.05,110.32
"Hailar",49.23,119.71
"Hailin",44.57,129.37
"Hailun",47.45,126.93
"Haimen",23.2,116.61
"Hainan",39.3,106.83
"Haizhou",34.56,119.09
"Hajipur",25.68,85.2
"Hakkari",37.57,43.75
"Hakodate",41.8,140.74
"Haldia",22.08,88.09
"Haldwani",29.23,79.52
"Halesowen",52.46,-2.06
"Halfa al-Jadidah",15.32,35.58
"Halifax",44.67,-63.61
"Halifax",53.73,-1.88
"Halisahar",22.95,88.42
"Halle",51.48,11.96
"Halmstad",56.67,12.86
"Halq-al-Wadi",36.85,10.32
"Halubcah",35.18,45.98
"Hamadan",34.77,48.58
"Hamah",35.15,36.73
"Hamakita",34.8,137.78
"Hamamatsu",34.72,137.73
"Hamburg",53.55,10
"Hamden",41.37,-72.89
"Hameln",52.11,9.35
"Hamhung",39.91,127.54
"Hamilton",43.26,-79.85
"Hamilton",-37.78,175.28
"Hamilton",40.09,-74.39
"Hamis Milyanah",36.26,2.21
"Hamis Musayt",18.31,42.73
"Hamma Bu Ziyan",36.42,6.6
"Hammam Dala'a",35.93,4.4
"Hammond",41.62,-87.49
"Hamparan Perak",3.72,98.62
"Hampton",37.05,-76.29
"Hamura",35.76,139.32
"Han Yunis",31.35,34.29
"Han_n Sayhun",35.43,36.63
"Hanabad",36.68,69.11
"Hanam",37.53,127.19
"Hanamaki",39.39,141.12
"Hanaqin",34.35,45.38
"Hanau",50.14,8.91
"Hancheng",35.47,110.43
"Hanchuan",30.64,113.83
"Handa",34.9,136.94
"Handan",36.58,114.48
"Hangu",39.23,117.78
"Hangzhou",30.25,120.17
"Hannan",34.36,135.25
"Hanno",35.86,139.32
"Hanover",52.4,9.73
"Hansalah",35.44,7.15
"Hansi",29.11,75.95
"Hanting",36.77,119.21
"Hanumangarh",29.62,74.29
"Hanyang",27.09,119.64
"Hanyu",36.18,139.54
"Hanzhong",33.13,107.03
"Haora",22.58,88.33
"Hapur",28.73,77.77
"Harare",-17.82,31.05
"Harbin",45.75,126.65
"Harda",22.33,77.11
"Hardenberg",52.57,6.61
"Hardoi",27.42,80.12
"Harer",9.31,42.13
"Hargeysa",9.56,44.06
"Haridwar",29.98,78.16
"Harihar",14.52,75.8
"Haripur",34.02,72.92
"Harlingen",26.2,-97.69
"Harlow",51.78,0.11
"Harrogate",53.99,-1.54
"Harsin",34.26,47.6
"Hartford",41.77,-72.68
"Hartlepool",54.69,-1.22
"Harunabad",29.61,73.14
"Hasanpur",28.72,78.28
"Hashima",35.32,136.7
"Hashimoto",34.31,135.62
"Hashtgerd",35.97,50.66
"Hasilpur",29.71,72.55
"Haskovo",41.94,25.56
"Hassan",13.01,76.08
"Hasselt",50.93,5.33
"Hassi Bahbah",35.08,3.02
"Hassi Bu Nif",35.7,-0.5
"Hastings",-39.64,176.84
"Hastings",50.86,0.57
"Hasuda",35.99,139.67
"Hat Yai",7,100.47
"Hathras",27.6,78.04
"Hatogaya",35.84,139.73
"Hatsukaichi",34.36,132.33
"Hattingen",51.41,7.18
"Havanna",23.13,-82.39
"Haveli",30.46,73.7
"Haverhill",42.78,-71.09
"Haveri",14.8,75.4
"Havirov",49.79,18.43
"Hawalli",29.35,47.98
"Hawthorne",33.91,-118.35
"Hayward",37.63,-122.1
"Hazaribag",24.01,85.36
"Hebron",31.54,35.09
"Hecun",36.52,114.1
"Heerlen",50.88,5.97
"Hefei",31.85,117.28
"Hegang",47.4,130.37
"Heidelberg",49.42,8.69
"Heidelberg",-26.53,28.34
"Heihe",50.27,127.47
"Heilbron",-27.28,27.98
"Heilbronn",49.14,9.22
"Heishan",41.69,122.11
"Hekinan",34.89,136.98
"Hekou",37.55,118.53
"Helong",42.54,129
"Helsingborg",56.05,12.7
"Helsinki",60.17,24.94
"Hemel Hempstead",51.76,-0.48
"Hemet",33.73,-117
"Hempstead",40.7,-73.62
"Hendala",6.98,79.87
"Henderson",36.03,-115
"Hengshan",45.2,130.89
"Hengshui",37.72,115.7
"Hengyang",26.89,112.62
"Henzada",17.65,95.47
"Herat",34.35,62.18
"Hereford",52.06,-2.73
"Herford",52.12,8.67
"Hermosillo",29.07,-110.97
"Hernandariaz",-25.4,-54.65
"Herne",51.54,7.21
"Herten",51.59,7.21
"Herzeliyya",32.17,34.84
"Hesperia",34.42,-117.3
"Hetauda",27.41,85.02
"Hetian",37.12,79.92
"Heyang",30,106.27
"Hialeah",25.86,-80.3
"Hidaka",35.9,139.35
"Hidalgo",26.93,-105.67
"Higashihiroshima",34.44,132.72
"Higashikurume",35.76,139.53
"Higashimatsuyama",36.05,139.4
"Higashimurayama",35.75,139.47
"Higashiosaka",34.67,135.59
"Higashiyamato",35.74,139.41
"High Point",35.98,-80
"High Wycombe",51.64,-0.78
"Highland",34.12,-117.19
"Highlands Ranch",39.55,-104.97
"Higuey",18.62,-68.71
"Hikone",35.27,136.24
"Hilden",51.18,6.93
"Hildesheim",52.16,9.95
"Hillsboro",45.53,-122.94
"Himatnagar",23.6,72.96
"Himeji",34.83,134.69
"Hindaun",26.74,77.02
"Hindupur",13.83,77.48
"Hinganghat",20.56,78.83
"Hingoli",19.72,77.14
"Hirakata",34.81,135.66
"Hiratsuka",35.33,139.35
"Hiriyur",13.97,76.6
"Hirosaki",40.6,140.47
"Hiroshima",34.39,132.44
"Hisar",29.16,75.72
"Hitachi",36.59,140.66
"Hitachinaka",36.4,140.52
"Hlotse",-28.85,28.06
"Ho Chi Minh City",10.78,106.69
"Hoa Binh",20.84,105.33
"Hobart",-42.85,147.29
"Hoffman Estates",42.06,-88.14
"Hohhot",40.82,111.64
"Holguin",20.89,-76.25
"Hollywood",26.03,-80.16
"Holon",32.02,34.76
"Homei",24.11,120.49
"Homjel'",52.43,30.99
"Hong Gai",20.97,107.08
"Hongan",31.28,114.61
"Honggang",46.47,124.87
"Honghu",29.82,113.47
"Hongjiang",27.12,109.99
"Hongwon",40.02,127.97
"Honiara",-9.43,159.91
"Honjo",36.24,139.18
"Honolulu",21.32,-157.8
"Hoover",33.38,-86.82
"Horizonte",-4.1,-38.49
"Horlivka",48.3,38.05
"Horsens",55.86,9.84
"Horsham",51.07,-0.33
"Hortolandia",-22.85,-47.26
"Hosh Eisa",30.9,30.29
"Hoshangabad",22.75,77.71
"Hoshiarpur",31.53,75.91
"Hospet",15.28,76.37
"Hossa'ina",7.55,37.85
"Hosur",12.72,77.82
"Houma",35.62,111.21
"Houston",29.77,-95.39
"Hradec Kralove",50.22,15.82
"Hrodna",53.67,23.83
"Hsichih",25.07,121.65
"Hsinchu",24.82,120.98
"Hsinchuang",25.04,121.44
"Hsintien",24.96,121.53
"Hsinying",23.3,120.31
"Hua Hin",12.57,99.95
"Huacho",-11.11,-77.62
"Huadian",42.97,126.74
"Huaibei",33.95,116.75
"Huaicheng",33.51,119.14
"Huaidian",33.41,115.03
"Huaihua",27.56,109.94
"Huainan",32.63,116.98
"Huaiyin",33.58,119.03
"Huaiyuan",32.96,117.19
"Hualian",23.99,121.59
"Huambo",-12.76,15.73
"Huanan",46.22,130.53
"Huancayo",-12.07,-75.21
"Huangchuan",32.13,115.03
"Huangcun",39.74,116.32
"Huanggang",23.68,117
"Huangmei",30.08,115.93
"Huangnihe",43.55,128.01
"Huangpi",30.87,114.36
"Huangpu",23.1,113.42
"Huangshi",30.22,115.1
"Huangyan",28.65,121.25
"Huangzhai",33.62,114.63
"Huangzhou",30.45,114.86
"Huanren",41.25,125.35
"Huanuco",-9.92,-76.24
"Huaral",-11.5,-77.21
"Huaraz",-9.53,-77.53
"Huauchinango",20.19,-98.07
"Huayang",30.58,103.92
"Huazhou",21.65,110.62
"Hubli",15.36,75.13
"Huddersfield",53.66,-1.8
"Huehuetenango",15.32,-91.47
"Huelva",37.25,-6.94
"Hugli-Chunchura",22.91,88.4
"Huicheng",22.52,113.02
"Huichon",40.17,126.28
"Huilong",31.81,121.65
"Huinan",42.62,126.25
"Huixquilucan",19.36,-99.35
"Huizhou",23.08,114.4
"Hujra Shah Muqim",30.75,73.82
"Hulan",45.99,126.6
"Hulan Ergi",47.21,123.61
"Humen",22.86,113.66
"Hunchun",42.87,130.35
"Hunedoara",45.77,22.92
"Hungnam",39.83,127.62
"Huntington Beach",33.69,-118.01
"Huntington Park",33.98,-118.22
"Huntsville",34.71,-86.63
"Huoqiu",32.34,116.26
"Hurghada",27.23,33.83
"Hurth",50.89,6.89
"Hushan",28.72,118.83
"Hushitai",41.95,123.51
"Hutang",31.54,119.48
"Huwei",23.72,120.39
"Huyton-with-Roby",53.41,-2.86
"Huzhou",30.87,120.1
"Hwado",37.65,127.29
"Hwasun",35.05,126.99
"Hwawon",35.79,128.47
"Hyderabad",17.4,78.48
"Hyderabad",25.38,68.37
"Hyeres",43.13,6.12
"Hyesan",41.39,128.17
"Hyuga",32.44,131.65
"Ibadan",7.38,3.93
"Ibague",4.45,-75.24
"Ibaraki",34.81,135.57
"Ibarra",0.36,-78.13
"Ibbenburen",52.29,7.71
"Ibirite",-20.03,-44.07
"Ibitinga",-21.76,-48.83
"Icara",-28.7,-49.3
"Ichalkaranji",16.69,74.46
"Ichihara",35.53,140.09
"Ichikawa",35.72,139.93
"Ichinomiya",35.3,136.8
"Ichinoseki",38.92,141.13
"Ichon",37.28,127.45
"Idaho Falls",43.49,-112.03
"Idanre",7.11,5.11
"Idappadi",11.58,77.85
"Idlib",35.94,36.63
"Ifakara",-8.13,36.68
"Ifon Osun",7.87,4.48
"Igarassu",-7.83,-34.9
"Igbara Odo",7.51,5.06
"Igbo Ora",7.43,3.29
"Igbo Ukwu",6.02,7.01
"Igboho",8.83,3.75
"Igdir",39.92,44.06
"Igede",7.65,5.12
"Iguala",18.37,-99.54
"Iguatu",-6.36,-39.3
"Ihiala",5.86,6.85
"Iizuka",33.64,130.69
"Ijebu Igbo",6.97,4
"Ijebu Jesa",7.68,4.82
"Ijebu Ode",6.81,3.92
"Ijero",7.81,5.07
"Ikare",7.45,5.6
"Ikeda",34.82,135.43
"Ikere",7.5,5.23
"Ikire",7.34,4.18
"Ikirun",7.92,4.66
"Ikole",7.79,5.47
"Ikoma",34.7,135.72
"Ikorodu",6.61,3.51
"Ikot Ekpene",5.19,7.71
"Iksan",35.94,126.95
"Ilagan",17.15,121.89
"Ilawe",7.4,5.06
"Ilebo",-4.32,20.61
"Ilesha",7.62,4.74
"Ilheus",-14.78,-39.05
"Iligan",8.17,124.22
"Ilion",38.03,23.71
"Ilioupoli",37.93,23.76
"Ilkal",15.97,76.13
"Illichivs'k",46.3,30.67
"Ilobu",7.84,4.48
"Iloilo",10.69,122.55
"Ilorin",8.5,4.53
"Imabari",34.06,133
"Imaichi",36.73,139.69
"Imari",33.27,129.88
"Imola",44.36,11.7
"Imperatriz",-5.52,-47.49
"Imphal",24.79,93.94
"Inagi",35.63,139.49
"Inazawa",35.25,136.77
"Inchon",37.48,126.64
"Indaiatuba",-23.09,-47.21
"Indianapolis",39.78,-86.15
"Indio",33.72,-116.23
"Indore",22.72,75.86
"Indramayu",-6.33,108.32
"Inegol",40.09,29.52
"Inglewood",33.96,-118.34
"Ingolstadt",48.77,11.43
"Ingraj Bazar",25.01,88.14
"Inhambane",-23.87,35.38
"Inisa",7.84,4.33
"Innsbruck",47.28,11.41
"Inowroclaw",52.78,18.25
"Inuyama",35.38,136.93
"Inzai",35.84,140.15
"Ioannina",39.67,20.85
"Iowa City",41.66,-91.54
"Ipatinga",-19.48,-42.52
"Ipiales",0.83,-77.65
"Ipojuca",-8.4,-35.07
"Ipoti",7.87,5.07
"Ipswich",52.07,1.14
"Iquique",-20.23,-70.14
"Iquitos",-3.75,-73.2
"Iraklion",35.33,25.13
"Iranshahr",27.2,60.7
"Irapuato",20.68,-101.36
"Irbid",32.55,35.85
"Irbil",36.19,44.02
"Irece",-11.3,-41.87
"Iriga",13.43,123.42
"Iringa",-7.77,35.69
"Irkutsk",52.33,104.24
"Irondequoit",43.21,-77.57
"Iruma",35.83,139.38
"Irvine",33.66,-117.8
"Irving",32.86,-96.97
"Irvington",40.72,-74.23
"Isabela",6.7,121.97
"Isahaya",32.84,130.05
"Isehara",35.41,139.32
"Iserlohn",51.39,7.68
"Isesaki",36.32,139.2
"Iseyin",7.98,3.67
"Ishieke",6.4,8.03
"Ishikari",43.25,141.36
"Ishim",56.15,69.45
"Ishimbay",53.46,56.04
"Ishinomaki",38.43,141.29
"Ishioka",36.19,140.28
"Ishurdi",24.14,89.07
"Isiro",2.76,27.62
"Iskenderun",36.58,36.17
"Iskitim",54.64,83.29
"Islamabad",33.72,73.06
"Islampur",26.27,88.2
"Ismailia",30.59,32.26
"Isparta",37.77,30.55
"Issia",6.49,-6.59
"Issy-les-Moulineaux",48.83,2.26
"Istanbul",41.1,29
"Itabaiana",-10.68,-37.43
"Itabira",-19.62,-43.23
"Itaborai",-22.75,-42.87
"Itabuna",-14.79,-39.28
"Itaguai",-22.87,-43.78
"Itagui",6.17,-75.62
"Itaituba",-4.27,-55.99
"Itajai",-26.9,-48.68
"Itajuba",-22.42,-45.45
"Itami",34.78,135.42
"Itanhaem",-24.18,-46.8
"Itapecerica da Serra",-23.72,-46.83
"Itaperuna",-21.21,-41.89
"Itapetinga",-15.25,-40.25
"Itapetininga",-23.59,-48.04
"Itapeva",-23.98,-48.88
"Itapevi",-23.55,-46.94
"Itapipoca",-3.5,-39.58
"Itapira",-22.43,-46.83
"Itaquaquecetuba",-23.47,-46.35
"Itarsi",22.62,77.76
"Itatiba",-22.99,-46.84
"Itaugua",-25.38,-57.34
"Itauna",-20.06,-44.57
"Itoman",26.13,127.68
"Ituiutaba",-18.97,-49.46
"Itumbiara",-18.4,-49.21
"Ivano-Frankivs'k",48.92,24.71
"Ivanovo",57.01,40.99
"Ivanteyevka",55.97,37.92
"Ivry-sur-Seine",48.82,2.38
"Iwade",34.25,135.32
"Iwaki",37.05,140.88
"Iwakuni",34.17,132.23
"Iwamizawa",43.2,141.76
"Iwata",34.72,137.85
"Iwatsuki",35.96,139.7
"Ixtapaluca",19.32,-98.88
"Izhevsk",56.85,53.23
"Izmayil",45.35,28.83
"Izmir",38.43,27.15
"Izmit",40.77,29.93
"Izumi",34.48,135.42
"Izumiotsu",34.5,135.41
"Izumisano",34.42,135.32
"Izumo",35.36,132.75
"Izyum",49.21,37.26
"Ja'ar",13.22,45.31
"Jabaliya",31.53,34.49
"Jabalpur",23.17,79.94
"Jabalpur Cantonment",23.16,79.95
"Jablah",35.37,35.94
"Jaboatao",-8.11,-35.02
"Jaboticabal",-21.25,-48.33
"Jacarei",-23.3,-45.96
"Jackson",32.32,-90.21
"Jacksonville",30.33,-81.66
"Jacobabad",28.28,68.43
"Jaffna",9.67,80.01
"Jagadhri",30.18,77.29
"Jagdalpur",19.09,82.03
"Jagraon",30.78,75.48
"Jagtial",18.8,78.91
"Jaguey Grande",22.53,-81.13
"Jahanabad",25.22,84.98
"Jahangirabad",28.42,78.1
"Jahrom",28.55,53.57
"Jaipur",26.92,75.8
"Jaipur Hat",25.1,89.03
"Jaisalmer",26.92,70.9
"Jakarta",-6.18,106.83
"Jalalabad",34.44,70.44
"Jalalpur Jattan",32.64,74.2
"Jalandhar",31.33,75.57
"Jalaun",26.15,79.35
"Jalgaon",21.01,75.56
"Jalib as-Suyuh",29.27,47.94
"Jalingo",8.89,11.37
"Jalna",19.85,75.88
"Jalpaiguri",26.53,88.71
"Jama'a",33.52,5.96
"Jamalpur",24.92,89.94
"Jamalpur",25.32,86.48
"Jamame",0.08,42.75
"Jambi",-1.59,103.61
"Jambol",42.5,26.52
"Jamkhandi",16.51,75.28
"Jammu",32.71,74.85
"Jamnagar",22.47,70.07
"Jampur",29.64,70.59
"Jamshedpur",22.79,86.2
"Jamui",24.92,86.22
"Jamuria",23.7,87.08
"Janakpur",26.73,85.92
"Janauba",-15.8,-43.31
"Jandira",-23.54,-46.92
"Janesville",42.68,-89.02
"Jangipur",24.47,88.07
"Jaora",23.64,75.11
"Japeri",-22.65,-43.66
"Jaragua do Sul",-26.48,-49.1
"Jaranwala",31.34,73.41
"Jarbah Hawmat-as-Suq",33.88,10.85
"Jaridih",24.19,86.3
"Jarjis",33.51,11.11
"Jastrzebie-Zdroj",49.99,18.59
"Jatai",-17.88,-51.75
"Jatibarang",-6.47,108.3
"Jatiroto",-7.89,111.11
"Jatiwangi",-6.73,108.25
"Jatni",20.17,85.7
"Jaunpur",25.76,82.69
"Jaworzno",50.21,19.27
"Jaya Pura",-2.54,140.72
"Jaypur",18.86,82.56
"Jelenia Gora",50.91,15.73
"Jelgava",56.65,23.71
"Jember",-8.17,113.69
"Jepara",-6.62,110.68
"Jequie",-13.85,-40.08
"Jerez",36.68,-6.13
"Jersey City",40.71,-74.06
"Jerusalem",31.78,35.22
"Jessor",23.17,89.21
"Jetpur",21.75,70.61
"Jhalakati",22.64,90.21
"Jhalawar",24.6,76.15
"Jhanaydah",23.55,89.18
"Jhang",31.28,72.32
"Jhansi",25.45,78.56
"Jhargram",22.45,86.98
"Jharia",23.76,86.42
"Jharsuguda",21.87,84.01
"Jhelum",32.94,73.72
"Jhumri Tilaiya",24.43,85.52
"Jhunjhunun",28.13,75.39
"Ji-Parana",-10.9,-61.95
"Jiagedagi",50.43,124.11
"Jiamusi",46.83,130.35
"Jiancheng",30.43,104.51
"Jiangdu",32.43,119.57
"Jiangguang",28.19,115.78
"Jiangkou",25.48,119.2
"Jiangmen",22.58,113.08
"Jiangyan",32.51,120.14
"Jiangyin",31.9,120.26
"Jiangyou",31.77,104.76
"Jianhu",33.52,119.71
"Jiaocheng",26.66,119.53
"Jiaohe",43.72,127.34
"Jiaojiang",28.68,121.45
"Jiaonan",35.88,119.96
"Jiaozhou",36.29,120
"Jiaozuo",35.25,113.22
"Jiaxing",30.77,120.75
"Jiayuguan",39.82,98.3
"Jiazi",22.88,116.05
"Jibuti",11.56,43.15
"Jiddah",21.5,39.17
"Jidong",45.22,131.08
"Jiehu",35.55,118.45
"Jieshi",22.82,115.82
"Jieshou",33.25,115.35
"Jiexiu",37.04,111.9
"Jijiang",29.27,106.22
"Jijiga",9.35,42.79
"Jijili",36.83,5.77
"Jilin",43.85,126.55
"Jimeta",9.28,12.46
"Jimma",7.68,36.83
"Jinan",36.67,117
"Jinchang",38.47,102.17
"Jincheng",35.5,112.83
"Jinchengjiang",24.7,107.83
"Jingcheng",32.02,120.26
"Jingdezhen",29.27,117.18
"Jingmen",31.03,112.19
"Jingxingkuang",38,114
"Jingzhou",30.35,112.18
"Jinhua",29.12,119.65
"Jining",35.4,116.55
"Jinja",0.44,33.2
"Jinji",23.23,110.82
"Jinma",25.06,102.75
"Jinotega",13.1,-86
"Jinsha",32.09,121.06
"Jinshi",29.63,111.85
"Jinxi",40.75,120.83
"Jinxiang",27.44,120.63
"Jinzhou",41.12,121.1
"Jiroft",28.67,57.73
"Jishou",28.32,109.72
"Jishu",44.29,126.79
"Jishui",33.74,115.4
"Jitra",6.27,100.42
"Jiujiang",29.73,115.98
"Jiulong",22.32,114.17
"Jiupu",41.07,122.95
"Jiuquan",39.75,98.51
"Jiutai",44.15,125.84
"Jiutepec",18.87,-99.18
"Jizan",16.9,42.55
"Jizzax",40.11,67.84
"Joao Monlevade",-19.83,-43.16
"Joao Pessoa",-7.12,-34.86
"Jodhpur",26.29,73.02
"Joensuu",62.61,29.78
"Joetsu",37.12,138.25
"Johannesburg",-26.19,28.04
"Johnson City",36.33,-82.37
"Johor Bahru",1.48,103.75
"Joinville",-26.32,-48.84
"Joliet",41.53,-88.12
"Jombang",-7.56,112.26
"Jonesboro",35.82,-90.69
"Jonkoping",57.78,14.17
"Jorapokhar",23.79,86.36
"Jorhat",26.76,94.2
"Juarez",31.74,-106.49
"Juazeiro",-9.42,-40.5
"Juazeiro do Norte",-7.21,-39.32
"Juchitan",16.43,-95.02
"Juegang",32.32,121.17
"Juigalpa",12.11,-85.38
"Juiz de Fora",-21.75,-43.36
"Jujuy",-24.19,-65.3
"Juliaca",-15.5,-70.14
"Junagadh",21.52,70.45
"Jundiai",-23.2,-46.88
"Jundubah",36.5,8.77
"Junin",-34.59,-60.96
"Juniyah",33.97,35.63
"Jupiter",26.92,-80.1
"Jurmala",56.98,23.76
"Juxian",35.58,118.82
"Jyvaskyla",62.26,25.75
"Kabale",-1.25,29.98
"Kabanjahe",3.1,98.48
"Kabankalan",10,122.82
"Kabba",7.84,6.07
"Kabinda",-6.13,24.48
"Kabirwala",30.4,71.87
"Kabul",34.53,69.17
"Kabwe",-14.44,28.45
"Kadayanallur",9.08,77.35
"Kadiri",14.12,78.16
"Kadirli",37.37,36.11
"Kadoma",34.73,135.59
"Kadoma",-18.33,29.91
"Kaduna",10.52,7.44
"Kadungora",-7.08,107.9
"Kaduqli",11.01,29.7
"Kaesong",37.97,126.56
"Kafanchan",9.59,8.28
"Kafr Sa'd",31.32,31.65
"Kafr el Dauwar",31.13,30.12
"Kafr el Sheikh",31.11,30.93
"Kafr el Zayat",30.82,30.82
"Kaga-Bandoro",6.98,19.18
"Kagaznagar",19.34,79.48
"Kagoro",9.61,8.38
"Kagoshima",31.59,130.56
"Kahramanmaras",37.61,36.94
"Kahror Pakka",29.62,71.91
"Kahta",37.77,38.59
"Kaifeng",34.85,114.35
"Kaihua",23.37,104.26
"Kaili",26.58,107.92
"Kairana",29.4,77.2
"Kaiserslautern",49.45,7.75
"Kaithal",29.81,76.4
"Kaitong",44.81,123.08
"Kaiyuan",23.72,103.24
"Kaizuka",34.45,135.36
"Kajang-Sungai Chua",2.98,101.77
"Kakamega",0.29,34.73
"Kakamigahara",35.41,136.89
"Kakegawa",34.77,138.03
"Kakinada",16.96,82.24
"Kakogawa",34.77,134.84
"Kalamaria",40.58,22.95
"Kalamassery",10.05,76.27
"Kalamata",37.04,22.11
"Kalamazoo",42.27,-85.59
"Kalasin",16.43,103.5
"Kalay",16.1,97.9
"Kalemie",-5.92,29.17
"Kalibo",11.71,122.36
"Kalima",-2.51,26.43
"Kaliningrad",54.71,20.5
"Kalisz",51.77,18.1
"Kaliyaganj",25.63,88.32
"Kallithea",37.95,23.7
"Kallur",15.69,77.77
"Kalmunai",7.41,81.82
"Kalna",23.22,88.37
"Kalol",23.25,72.49
"Kaluga",54.54,36.27
"Kalulushi",-12.84,28.09
"Kalush",49.02,24.37
"Kalyan",19.25,73.16
"Kalyani",22.98,88.48
"Kam'yanets'-Podil's'kyy",48.68,26.58
"Kamagaya",35.77,140.01
"Kamakura",35.32,139.55
"Kamalia",30.73,72.64
"Kamareddi",18.32,78.35
"Kamarhati",22.67,88.37
"Kambam",9.74,77.28
"Kambar",27.59,67.99
"Kamensk-Shakhtinskiy",48.32,40.26
"Kamensk-Uralskiy",56.41,61.93
"Kameoka",35.02,135.57
"Kamifukuoka",35.88,139.51
"Kamina",-8.73,25.01
"Kamisu",35.88,140.68
"Kamloops",50.68,-120.34
"Kamoke",31.98,74.21
"Kampala",0.32,32.58
"Kamphaeng Phet",16.47,99.52
"Kampong Cham",12,105.46
"Kampong Chhnang",12.26,104.66
"Kamthi",21.23,79.2
"Kamyaran",34.8,46.94
"Kamyshin",50.1,45.4
"Kanakapura",12.54,77.42
"Kananga",-5.89,22.4
"Kanata",45.34,-75.88
"Kanazawa",36.56,136.64
"Kanbe",16.7,96.02
"Kanchanaburi",14.02,99.53
"Kanchipuram",12.84,79.7
"Kanchrapara",22.95,88.45
"Kandi",11.13,2.94
"Kandi",23.95,88.03
"Kandy",7.29,80.63
"Kangar",6.44,100.19
"Kangavar",34.5,47.95
"Kanggye",40.97,126.6
"Kangnung",37.76,128.89
"Kangshan",22.8,120.27
"Kankan",10.39,-9.31
"Kannangad",12.34,75.09
"Kannauj",27.06,79.91
"Kannur",11.86,75.35
"Kanoya",31.38,130.85
"Kanpur",26.47,80.33
"Kanpur Cantonment",26.5,80.28
"Kansas City",39.12,-94.55
"Kansk",56.2,95.71
"Kanuma",36.57,139.75
"Kaohsiung",22.63,120.27
"Kaolack",14.15,-16.1
"Kaposvar",46.36,17.79
"Kapra",17.37,78.48
"Kaptai",22.47,92.2
"Kapurthala",31.38,75.38
"Karabalta",42.83,73.89
"Karabuk",41.21,32.61
"Karachi",24.86,67.01
"Karad",17.29,74.18
"Karaikal",10.93,79.83
"Karaikkudi",10.07,78.77
"Karaj",35.8,50.97
"Karakol",42.49,78.38
"Karakose",39.72,43.07
"Karaman",37.18,33.22
"Karamay",45.6,84.86
"Karang Tengah",-6.83,107.12
"Karanganom",-7.66,110.64
"Karangsembung",-6.83,108.65
"Karanja",20.48,77.48
"Karapinar",37.72,33.55
"Karatsu",33.44,129.97
"Karauli",26.5,77.02
"Karawang",-6.3,107.28
"Karbala",32.61,44.08
"Karimganj",24.85,92.36
"Karimnagar",18.45,79.13
"Kariya",34.99,137
"Karlovy Vary",50.24,12.87
"Karlsruhe",49,8.4
"Karlstad",59.38,13.51
"Karnal",29.69,76.97
"Karnul",15.83,78.03
"Kartosura",-7.55,110.74
"Karur",10.96,78.07
"Karvina",49.86,18.54
"Karwar",14.82,74.12
"Kasama",-10.2,31.18
"Kasaoka",34.52,133.52
"Kasaragod",12.5,74.98
"Kasese",0.22,30.01
"Kasganj",27.81,78.63
"Kashan",33.98,51.58
"Kashi",39.48,75.97
"Kashiba",34.55,135.7
"Kashihara",34.5,135.8
"Kashima",35.97,140.63
"Kashipur",29.22,78.96
"Kashiwa",35.87,139.97
"Kashiwara",34.59,135.64
"Kashiwazaki",37.38,138.57
"Kashmar",35.18,58.45
"Kasihan",-7.82,110.32
"Kasipalaiyam",11.45,77.29
"Kasongo",-4.45,26.66
"Kaspiysk",42.88,47.64
"Kassala",15.46,36.39
"Kassel",51.32,9.48
"Kastamonu",41.39,33.78
"Kasuga",33.54,130.47
"Kasugai",35.24,136.98
"Kasukabe",35.98,139.77
"Kasur",31.12,74.45
"Kataka",20.47,85.88
"Katano",34.78,135.68
"Katerini",40.27,22.5
"Kathmandu",27.71,85.31
"Katihar",25.55,87.57
"Katiola",8.15,-5.11
"Katoro",-3.02,31.9
"Katowice",50.26,19.02
"Katras",23.8,86.28
"Katsina",13,7.6
"Kattaqo'rg'on",39.9,66.26
"Katumba",-9.23,33.62
"Katunayaka",7.18,79.87
"Katwa",23.65,88.13
"Kaunas",54.9,23.91
"Kaura Namoda",12.59,6.58
"Kavakli",41.11,28.34
"Kavala",40.94,24.4
"Kavali",14.92,79.99
"Kawachinagano",34.48,135.57
"Kawagoe",35.92,139.49
"Kawaguchi",35.81,139.73
"Kawalu",-7.38,108.2
"Kawanishi",34.82,135.42
"Kawasaki",35.53,139.7
"Kawit",14.45,120.9
"Kayankulam",9.17,76.49
"Kayes",14.45,-11.44
"Kayhaydi",16.15,-13.5
"Kayseri",38.74,35.48
"Kazan",55.75,49.13
"Kazanlak",42.63,25.4
"Kazerun",29.6,51.67
"Kebomas",-7.17,112.63
"Kebumen",-7.67,109.65
"Kecskemet",46.91,19.69
"Kediri",-7.81,112.01
"Kedungwaru",-8.07,111.92
"Kedungwuni",-6.97,109.64
"Kedzierzyn-Kozle",50.34,18.21
"Keelung",25.13,121.73
"Kefar Sava",32.19,34.91
"Keffi",8.84,7.87
"Keighley",53.87,-1.92
"Kelowna",49.89,-119.46
"Kemang",-6.98,107.25
"Kembaran",-7.42,109.28
"Kembolcha",11.08,39.74
"Kemerovo",55.33,86.08
"Kempten",47.73,10.3
"Kendal",-6.91,110.42
"Kendale Lakes",25.71,-80.41
"Kendall",25.67,-80.34
"Kendari",-3.97,122.59
"Kendujhar",21.63,85.58
"Kenema",7.88,-11.19
"Keng Tung",21.29,99.62
"Keningau",5.35,116.15
"Kenitra",34.27,-6.58
"Kenner",29.99,-90.25
"Kennewick",46.2,-119.17
"Kenosha",42.58,-87.85
"Kentau",43.52,68.52
"Kepanjen",-8.13,112.58
"Keratsinion",37.96,23.62
"Kerch",45.36,36.48
"Keren",15.68,38.45
"Kerman",30.3,57.08
"Kermanshah",34.38,47.06
"Kerpen",50.88,6.69
"Kertosono",-7.6,112.11
"Kesennuma",38.81,141.57
"Keshan",48.03,125.86
"Keshod",21.31,70.23
"Keskin",39.68,33.61
"Kettering",52.4,-0.73
"Kettering",39.7,-84.15
"Kgotsong",-27.39,26.62
"Khabarovsk",48.42,135.12
"Khadki",18.57,73.83
"Khagaria",25.5,86.48
"Khagaul",25.58,85.05
"Khagrachari",23.09,91.96
"Khairpur",27.53,68.74
"Khalandrion",38.03,23.8
"Khalkhal",37.63,48.52
"Khalkis",38.46,23.6
"Khambhat",22.32,72.61
"Khamgaon",20.7,76.56
"Khammam",17.25,80.15
"Khandh Kot",28.24,69.18
"Khandwa",21.83,76.35
"Khanewal",30.31,71.82
"Khania",35.51,24.02
"Khanna",30.71,76.21
"Khanpur",28.65,70.65
"Khanty-Mansiysk",61,69
"Kharagpur",22.34,87.31
"Kharagpur Railway Settlement",22.34,87.26
"Khardaha",22.73,88.38
"Khargone",21.83,75.6
"Kharian",32.81,73.89
"Kharkiv",49.98,36.22
"Khartoum",15.58,32.52
"Khartsyz'k",48.04,38.14
"Khasavyurt",43.25,46.59
"Khash",28.22,61.23
"Khatauli",29.28,77.72
"Khemisset",33.84,-6.07
"Khenifra",32.95,-5.67
"Kherson",46.63,32.6
"Khimki",55.89,37.44
"Khlong Luang",14.07,100.65
"Khmel'nyts'kyy",49.42,27
"Kholm",36.69,67.69
"Kholm",51.14,23.49
"Khomeyn",33.63,50.05
"Khomeynishahr",32.7,51.47
"Khon Kaen",16.42,102.83
"Khopoli",18.78,73.33
"Khorramabad",33.48,48.35
"Khorramdarreh",36.2,49.18
"Khorramshahr",30.43,48.18
"Khouribga",32.89,-6.91
"Khowst",33.34,69.92
"Khujand",40.29,69.62
"Khulna",22.84,89.56
"Khuresgan",32.65,51.75
"Khurja",28.26,77.85
"Khushab",32.3,72.34
"Khuzdar",27.8,66.6
"Kidapawan",7.01,125.09
"Kidderminster",52.4,-2.27
"Kielce",50.89,20.65
"Kifah",16.62,-11.4
"Kigali",-1.94,30.06
"Kigoma",-4.88,29.61
"Kikwit",-5.03,18.81
"Kilchu",40.96,129.32
"Kilis",36.73,37.11
"Killeen",31.1,-97.72
"Kilosa",-6.84,36.99
"Kimberley",-28.75,24.77
"Kimchaek",40.67,129.2
"Kimchon",36.11,128.13
"Kimhae",35.19,128.93
"Kimitsu",35.33,139.91
"Kimpo",37.64,126.7
"Kimry",56.87,37.35
"Kindia",10.06,-12.87
"Kindu",-2.95,25.92
"Kineshma",57.44,42.13
"Kingisepp",59.37,28.6
"Kingston",44.23,-76.5
"Kingston",17.99,-76.8
"Kingston upon Hull",53.75,-0.36
"Kingswood",51.46,-2.53
"Kinshasa",-4.31,15.32
"Kipushi",-11.76,27.25
"Kiratpur",29.52,78.2
"Kirikhan",36.5,36.35
"Kirikkale",39.85,33.52
"Kirishi",59.46,32.02
"Kirklareli",41.75,27.22
"Kirkuk",35.47,44.41
"Kirov",58.6,49.66
"Kirovo-Chepetsk",58.55,50.04
"Kirovohrad",48.5,32.26
"Kirsehir",39.15,34.16
"Kiryu",36.43,139.33
"Kisangani",0.53,25.19
"Kisaran",2.99,99.62
"Kisarazu",35.38,139.93
"Kiselyovsk",53.98,86.65
"Kishanganj",26.11,87.95
"Kishangarh",26.58,74.86
"Kishi",9.09,3.85
"Kishiwada",34.47,135.39
"Kishorganj",24.44,90.77
"Kislovodsk",43.91,42.72
"Kismayo",-0.35,42.53
"Kissimmee",28.3,-81.41
"Kisumu",-0.09,34.75
"Kitahiroshima",42.99,141.56
"Kitaibaraki",36.79,140.73
"Kitakami",39.29,141.12
"Kitakyushu",33.88,130.86
"Kitale",1.03,34.99
"Kitami",43.81,143.89
"Kitamoto",36.03,139.54
"Kitchener",43.46,-80.5
"Kitgum",3.3,32.87
"Kitwe",-12.81,28.22
"Kiyose",35.78,139.53
"Kiziltepe",37.19,40.59
"Kizlyar",43.85,46.72
"Kladno",50.15,14.09
"Klaeng",12.78,101.65
"Klagenfurt",46.62,14.31
"Klaipeda",55.71,21.13
"Klang",3.04,101.45
"Klangenan",-6.69,108.47
"Klaten",-7.71,110.59
"Klerksdorp",-26.88,26.62
"Klimovsk",55.36,37.53
"Klintsy",52.76,32.23
"Kluang",2.04,103.32
"Knoxville",35.97,-83.95
"Knysna",-34.03,23.06
"Koblenz",50.35,7.6
"Kobryn",52.21,24.35
"Koch Bihar",26.33,89.46
"Kochang",35.43,126.69
"Kochi",10.02,76.22
"Kochi",33.56,133.54
"Kodaira",35.74,139.49
"Kodar",16.98,79.97
"Koforidua",6.09,-0.26
"Kogalym",62.03,74.5
"Koganei",35.72,139.52
"Kogon",39.72,64.55
"Kohat",33.6,71.44
"Kohima",25.67,94.11
"Koidu",8.44,-10.85
"Koks Bazar",21.44,91.98
"Koksetau",53.3,69.42
"Kokubu",31.73,130.77
"Kokubunji",35.7,139.48
"Kolar",13.14,78.13
"Kolda",12.91,-14.95
"Kolding",55.49,9.47
"Kolhapur",16.7,74.22
"Kollam",8.89,76.58
"Kollegal",12.15,77.12
"Kolokani",13.58,-8.05
"Kolomna",55.08,38.78
"Kolomyya",48.53,25.04
"Kolonnawa",6.93,79.88
"Kolpino",59.75,30.6
"Kolwezi",-10.7,25.66
"Komae",35.63,139.58
"Komaki",35.3,136.91
"Komatsu",36.41,136.44
"Komilla",23.46,91.17
"Komsomol's'k",49.03,33.67
"Komsomolsk-na-Amure",50.56,137
"Konan",35.34,136.86
"Konch",25.98,79.15
"Kondukur",15.22,79.91
"Kongju",36.45,127.12
"Konibodom",40.29,70.43
"Konin",52.21,18.25
"Konnagar",22.7,88.36
"Konosu",36.05,139.53
"Konotop",51.24,33.21
"Konstanz",47.68,9.17
"Kontagora",10.4,5.47
"Konya",37.88,32.48
"Koom Ombo",24.47,32.95
"Kopargaon",19.88,74.48
"Kopeysk",55.11,61.65
"Koppal",15.35,76.15
"Koratla",18.82,78.72
"Korba",22.35,82.69
"Korce",40.63,20.79
"Korfez",40.79,29.73
"Korhogo",9.45,-5.65
"Koridallos",37.98,23.66
"Koriyama",37.41,140.38
"Korla",41.73,86.15
"Korolyov",55.92,37.82
"Koronadal",6.5,124.85
"Korosten'",50.95,28.65
"Kortrijk",50.83,3.27
"Koshigaya",35.89,139.79
"Kosi Kalan",27.8,77.44
"Kosice",48.73,21.26
"Koson",39.04,65.57
"Kosovska Mitrovica",42.89,20.87
"Kostroma",57.77,40.93
"Kostyantynivka",48.53,37.72
"Koszalin",54.19,16.18
"Kot Abdul Malik",30.2,66.98
"Kot Addu",30.46,70.97
"Kot Kapura",30.59,74.8
"Kota Bahru",6.12,102.24
"Kota Baru",-3.25,116.24
"Kota Kinabalu",5.97,116.07
"Kota Pinang",1.9,100.08
"Kota Tinggi",1.73,103.9
"Kotikawatta",6.94,79.92
"Kotka",60.47,26.93
"Kotlas",61.26,46.66
"Kotri",25.36,68.3
"Kottagudem",17.56,80.64
"Kottayam",9.6,76.52
"Kotte",6.89,79.9
"Koudougou",12.25,-2.37
"Kouqian",43.7,126.34
"Kousseri",12.08,15.03
"Koutiala",12.39,-5.47
"Kovel'",51.22,24.72
"Kovilpatti",9.19,77.86
"Kovrov",56.36,41.32
"Koyampattur",11.01,76.96
"Koyang",37.7,126.93
"Koyilandi",11.43,75.7
"Kozan",37.45,35.83
"Kozhikkod",11.26,75.78
"Kpalime",6.9,0.63
"Kragujevac",44.02,20.92
"Kraljevo",43.74,20.67
"Kramators'k",48.72,37.53
"Krasnoarmeysk",48.28,37.18
"Krasnodar",45.03,38.98
"Krasnogorsk",55.83,37.33
"Krasnokamensk",50.05,118.02
"Krasnokamsk",58.07,55.75
"Krasnoturinsk",59.79,60.48
"Krasnoyarsk",56.02,93.06
"Krasnoyarsk-45",56.11,94.59
"Krasnyy Luch",48.13,38.93
"Krathum Baen",13.65,100.27
"Krefeld",51.33,6.55
"Kremenchuk",49.07,33.42
"Kresek",-6.13,106.37
"Kribi",2.94,9.91
"Krishnagiri",12.54,78.21
"Krishnanagar",23.41,88.51
"Krishnarajapura",12.97,77.74
"Kristiansand",58.15,7.99
"Kroonstad",-27.66,27.21
"Kropotkin",45.44,40.58
"Krugersdorp",-26.09,27.77
"Krusevac",43.58,21.32
"Krymsk",44.92,37.98
"Kryvyy Rih",47.92,33.35
"Ksar El Kebir",35.02,-5.91
"Kstovo",56.14,44.19
"Kuala Lumpur",3.16,101.71
"Kuala Selangor",3.35,101.25
"Kuala Terengganu",5.33,103.14
"Kuandian",40.73,124.78
"Kuantan",3.82,103.34
"Kuchaman",27.15,74.85
"Kuche",41.72,82.92
"Kuching",1.55,110.34
"Kudamatsu",34,131.86
"Kudus",-6.81,110.84
"Kuhdasht",33.53,47.6
"Kuito",-12.38,16.94
"Kukatpalle",17.49,78.41
"Kulai",1.67,103.6
"Kulim",5.36,100.55
"Kulob",37.92,69.78
"Kulti",23.72,86.89
"Kumagaya",36.15,139.39
"Kumamoto",32.8,130.71
"Kumanovo",42.14,21.71
"Kumarapalaiyam",11.44,77.73
"Kumasi",6.69,-1.63
"Kumba",4.64,9.44
"Kumbakonam",10.97,79.38
"Kumbo",6.22,10.68
"Kumertau",52.77,55.78
"Kumsong",34.82,128.01
"Kundla",21.35,71.3
"Kungur",57.43,56.95
"Kuningan",-6.98,108.48
"Kunitachi",35.69,139.43
"Kuniyamuthur",10.98,76.95
"Kunming",25.05,102.7
"Kunnamkulam",10.65,76.08
"Kunpo",37.35,126.95
"Kunsan",35.99,126.71
"Kunyang",27.68,120.56
"Kuopio",62.9,27.7
"Kupang",-10.17,123.57
"Kurashiki",34.61,133.77
"Kurgan",55.45,65.33
"Kurichi",10.92,76.96
"Kurigram",25.83,89.7
"Kuroiso",36.98,140.05
"Kuroro",7.58,6.23
"Kursk",51.73,36.19
"Kurume",33.31,130.51
"Kusadasi",37.87,27.26
"Kusatsu",35.02,135.95
"Kushiro",42.98,144.38
"Kushtiya",23.91,89.14
"Kusti",13.17,32.66
"Kutahya",39.42,29.98
"Kutaisi",42.26,42.72
"Kutlwanong",-27.84,26.75
"Kuwana",35.08,136.7
"Kuytun",44.44,84.89
"Kuznetsk",53.12,46.6
"Kwachon",37.42,126.99
"Kwangju",35.16,126.91
"Kwangmyong",37.45,126.84
"Kwangyang",34.97,127.6
"Kwekwe",-18.93,29.8
"Kyaiklat",16.45,95.73
"Kyaukse",21.62,96.13
"Kyongju",35.85,129.22
"Kyongsan",35.82,128.73
"Kyotanabe",34.82,135.77
"Kyoto",35.01,135.75
"Kyzyl",51.71,94.38
"L'Aquila",42.35,13.39
"L'Hospitalet de Llobregat",41.35,2.1
"L'viv",49.83,24
"La Ceiba",15.78,-86.79
"La Chorrera",8.88,-79.78
"La Crosse",43.83,-91.23
"La Dolorita",10.48,-66.78
"La Dorada",5.47,-74.67
"La Estrella",6.17,-75.65
"La Habra",33.93,-117.95
"La Libertad",-2.23,-80.9
"La Linea",36.17,-5.36
"La Louviere",50.49,4.23
"La Mesa",32.77,-117.02
"La Mirada",33.9,-118.01
"La Paz",-16.5,-68.15
"La Paz",24.14,-110.32
"La Piedad",20.33,-102.03
"La Plata",-34.92,-57.96
"La Rioja",-29.41,-66.85
"La Roche-sur-Yon",46.67,-1.44
"La Rochelle",46.17,-1.18
"La Romana",18.43,-68.97
"La Serena",-29.9,-71.25
"La Seyne-sur-Mer",43.11,5.87
"La Spezia",44.13,9.83
"La Vega",19.22,-70.53
"La Victoria",10.23,-67.34
"Labinsk",44.63,40.74
"Labuan",5.29,115.24
"Labuhan Deli",3.75,98.68
"Ladnun",27.64,74.38
"Lafayette",30.22,-92.03
"Lafia",8.49,8.52
"Lafiagi",8.85,5.42
"Lages",-27.81,-50.31
"Lagos",6.45,3.47
"Lagos de Moreno",21.37,-101.93
"Laguna Niguel",33.53,-117.7
"Lahad Datu",5.03,118.34
"Laharpur",27.72,80.9
"Lahat",-3.79,103.54
"Lahijan",37.2,50
"Lahore",31.56,74.35
"Lahti",60.99,25.66
"Laibin",23.7,109.27
"Laiwu",36.2,117.66
"Laiyang",36.97,120.7
"Laizhou",37.17,119.94
"Lajeado",-29.45,-51.96
"Lake Charles",30.21,-93.2
"Lake Forest",33.63,-117.7
"Lake Havasu City",34.5,-114.31
"Lakeland",28.04,-81.96
"Lakeville",44.68,-93.24
"Lakewood",39.7,-105.11
"Lakhimpur",27.95,80.78
"Lakhisarai",25.18,86.09
"Lakhnau",26.85,80.92
"Lakhnau Cantonment",26.81,80.97
"Laksham",23.24,91.12
"Lakshmipur",22.95,90.8
"Lalamusa",32.7,73.96
"Lalbahadur Nagar",17.43,78.5
"Lalitpur",24.7,78.41
"Lalitpur",27.68,85.32
"Lalmanir Hat",25.91,89.45
"Lalupon",7.47,4.06
"Lam Luk Ka",13.93,100.75
"Lambare",-25.33,-57.64
"Lamezia Terme",38.95,16.29
"Lamongan",-7.12,112.41
"Lampang",18.29,99.48
"Lancaster",34.69,-118.18
"Landshut",48.54,12.14
"Langarud",37.18,50.15
"Langenfeld",51.11,6.95
"Langenhagen",52.45,9.74
"Langfang",39.52,116.68
"Langsa",4.47,97.96
"Langtou",40.04,124.33
"Langxiang",46.95,128.86
"Lansing",42.71,-84.55
"Lanxi",29.22,119.46
"Lanzhou",36.05,103.68
"Laoag",18.2,120.59
"Laohekou",32.39,111.66
"Lappeenranta",61.06,28.18
"Lapu-Lapu",10.33,123.96
"Larache",35.2,-6.16
"Laredo",27.53,-99.49
"Largo",27.91,-82.78
"Larisa",39.64,22.42
"Larkana",27.56,68.21
"Las Cruces",32.34,-106.76
"Las Cumbres",9.08,-79.53
"Las Palmas",28.1,-15.43
"Las Piedras",-34.69,-56.23
"Las Rozas de Madrid",40.5,-3.87
"Las Tunas",20.97,-76.95
"Las Vegas",36.21,-115.22
"Lashio",22.95,97.74
"Latacunga",-0.93,-78.61
"Latina",41.47,12.89
"Latur",18.41,76.58
"Lauderhill",26.17,-80.23
"Launceston",-41.45,147.13
"Lauro de Freitas",-12.91,-38.35
"Lausanne",46.52,6.62
"Laval",48.07,-0.78
"Lavras",-21.25,-45.01
"Lawang",-7.83,112.7
"Lawrence",38.96,-95.26
"Lawton",34.6,-98.42
"Layton",41.08,-111.95
"Lazaro Cardenas",17.95,-102.18
"Le Havre",49.5,0.12
"Le Mans",48,0.2
"Le Tampon",-21.27,55.53
"League City",29.49,-95.11
"Lecce",40.36,18.16
"Lecheng",25.14,113.35
"Lee's Summit",38.92,-94.38
"Leeds",53.81,-1.55
"Leeuwarden",53.21,5.79
"Leganes",40.33,-3.77
"Legazpi",13.17,123.75
"Leghorn",43.55,10.3
"Legionowo",52.41,20.92
"Legnano",45.61,8.91
"Legnica",51.21,16.16
"Lehigh Acres",26.6,-81.63
"Leicester",52.64,-1.13
"Leicheng",25.13,113.35
"Leiden",52.17,4.49
"Leidschendam-Voorburg",52.09,4.39
"Leipzig",51.35,12.4
"Leiyang",26.42,112.84
"Lelystad",52.52,5.45
"Lembang",-6.81,107.61
"Lemesos",34.68,33.05
"Lencois Paulista",-22.59,-48.8
"Lengshuijiang",27.68,111.42
"Lengshuitan",26.45,111.58
"Leninogorsk",45.64,63.29
"Leninogorsk",54.6,52.45
"Leninsk-Kuznetskiy",54.66,86.16
"Lerdo",25.53,-103.53
"Les Abymes",16.29,-61.49
"Les Cayes",18.2,-73.75
"Leshan",29.57,103.74
"Leskovac",43,21.95
"Lesnoy",58.65,59.8
"Lesosibirsk",58.24,92.48
"Leszno",51.85,16.57
"Lethbridge",49.69,-112.83
"Leuven",50.88,4.7
"Leuwiliang",-6.57,106.62
"Levallois-Perret",48.9,2.29
"Leverkusen",51.04,6.99
"Levittown",40.15,-74.85
"Lewisville",33.04,-96.98
"Lexington",38.04,-84.46
"Lhokseumawe",5.19,97.14
"Liancheng",21.62,110.28
"Liangxiang",39.73,116.13
"Lianran",24.91,102.49
"Lianyuan",27.66,111.66
"Lianzhou",24.79,112.36
"Liaocheng",36.43,115.97
"Liaoyang",41.28,123.18
"Liaoyuan",42.9,125.13
"Liaozhong",41.51,122.73
"Liberec",50.78,15.06
"Libreville",0.39,9.45
"Licheng",23.3,113.82
"Lichinga",-13.3,35.24
"Lichtenburg",-26.15,26.16
"Lichuan",30.3,108.92
"Licung",36.17,120.41
"Lieah",30.97,70.93
"Liege",50.64,5.57
"Liepaja",56.51,21.01
"Likasi",-10.98,26.73
"Liling",27.67,113.49
"Lille",50.64,3.07
"Liloan",10.4,123.98
"Lilongwe",-13.97,33.8
"Limay",14.56,120.6
"Limbe",4.02,9.19
"Limeira",-22.55,-47.4
"Limerick",52.67,-8.63
"Limoges",45.83,1.25
"Limon",9.99,-83.04
"Limpio",-25.18,-57.53
"Linares",-35.84,-71.59
"Linares",24.86,-99.57
"Linares",38.1,-3.63
"Linchuan",27.99,116.37
"Lincoln",53.25,-0.55
"Lincoln",40.82,-96.69
"Linfen",36.08,111.52
"Lingao",19.91,109.68
"Lingayen",16.02,120.23
"Lingdong",46.57,131.14
"Lingen",52.54,7.31
"Lingyuan",41.25,119.39
"Linhai",28.84,121.11
"Linhares",-19.39,-40.05
"Linhe",40.83,107.5
"Linjiang",41.82,126.91
"Linkoping",58.41,15.63
"Linkou",45.28,130.25
"Linping",30.42,120.3
"Linqing",36.85,115.68
"Linqiong",30.42,103.46
"Linqu",36.51,118.52
"Linshu",34.91,118.65
"Linshui",36.45,114.2
"Linxi",39.7,118.43
"Linxia",35.61,103.21
"Linyi",35.08,118.33
"Lipetsk",52.62,39.62
"Lippstadt",51.67,8.34
"Lisala",2.14,21.51
"Lisbon",38.72,-9.14
"Lisburn",54.52,-6.06
"Lishan",34.37,109.19
"Lishu",45.09,130.69
"Lishui",28.46,119.91
"Little Rock",34.72,-92.35
"Littlehampton",50.82,-0.54
"Liucheng",32.34,118.84
"Liuerbao",41.13,123.45
"Liuhe",42.27,125.72
"Liupanshui",26.58,104.86
"Liupen",33,114.34
"Liusha",23.3,116.15
"Liuzhou",24.28,109.25
"Livermore",37.69,-121.76
"Liverpool",53.42,-2.99
"Livingston",55.91,-3.5
"Livingstone",-17.86,25.86
"Livny",52.42,37.6
"Livonia",42.4,-83.37
"Liyang",31.43,119.48
"Ljubljana",46.06,14.51
"Lleida",41.62,0.63
"Loa Janan",-0.59,117.1
"Lobito",-12.36,13.53
"Lobnya",56.01,37.48
"Lodhran",29.54,71.63
"Lodja",-3.49,23.42
"Logrono",42.47,-2.44
"Lohardaga",23.43,84.68
"Lokoja",7.81,6.74
"Lokossa",6.62,1.71
"Lomza",53.18,22.07
"Lonavale",18.75,73.42
"London",42.97,-81.24
"London",51.52,-0.1
"Londonderry",55,-7.33
"Londrina",-23.3,-51.18
"Long Beach",33.79,-118.16
"Long Xuyen",10.39,105.43
"Longfeng",46.55,125.11
"Longhua",29.17,107.09
"Longjiang",47.34,123.18
"Longjing",42.77,129.42
"Longkou",37.65,120.33
"Longmont",40.17,-105.11
"Longquan",24.68,102.15
"Longview",32.52,-94.76
"Longyan",25.18,117.03
"Lop Buri",14.8,100.62
"Lopez Mateos",19.57,-99.26
"Lorain",41.44,-82.18
"Lorca",37.68,-1.7
"Lorena",-22.73,-45.11
"Lorient",47.74,-3.37
"Los Andes",-32.83,-70.6
"Los Angeles",-37.46,-72.36
"Los Angeles",34.11,-118.41
"Los Banos",14.18,121.18
"Los Dos Caminos",10.52,-66.84
"Los Mochis",25.79,-109
"Los Patios",7.84,-72.51
"Los Reyes",19.36,-98.98
"Los Teques",10.42,-67.02
"Lotung",24.69,121.76
"Loubomo",-4.18,12.67
"Loudi",27.75,111.98
"Louga",15.61,-16.25
"Loughborough",52.77,-1.22
"Louis Trichardt",-23.04,29.89
"Louisville",38.22,-85.74
"Loures",38.83,-9.16
"Loveland",40.42,-105.07
"Lowell",42.64,-71.32
"Lower Hutt",-41.2,174.93
"Lower Merion",40.03,-75.28
"Lowestoft",52.49,1.72
"Lozova",48.88,36.38
"Luancheng",37.88,114.65
"Luanda",-8.82,13.24
"Luang Prabang",19.89,102.14
"Luanshya",-13.12,28.39
"Lubango",-14.91,13.49
"Lubao",14.94,120.6
"Lubbock",33.58,-101.88
"Lubeck",53.87,10.66
"Lubin",51.4,16.2
"Lublin",51.24,22.57
"Lubuk Linggau",-3.29,102.85
"Lubuk Pakam",3.56,98.87
"Lubumbashi",-11.66,27.48
"Lucca",43.85,10.5
"Lucena",13.95,121.6
"Lucheng",25.03,101.55
"Luchou",25.08,121.47
"Ludenscheid",51.23,7.6
"Ludhiana",30.91,75.84
"Ludwigsburg",48.9,9.19
"Ludwigshafen",49.48,8.44
"Luhans'k",48.57,39.33
"Lujan",-34.58,-59.11
"Lujiang",31.24,117.27
"Lukang",24.06,120.43
"Luleburgaz",41.42,27.36
"Lumajang",-8.14,113.22
"Luneburg",53.25,10.4
"Lunen",51.62,7.52
"Lunglei",22.88,92.73
"Luocheng",22.77,111.56
"Luohe",33.57,114.03
"Luorong",24.41,109.61
"Luoyang",34.68,112.47
"Luqiao",28.58,121.38
"Luque",-25.27,-57.49
"Lusaka",-15.42,28.29
"Lushunkou",38.81,121.25
"Luton",51.9,-0.44
"Luts'k",50.75,25.33
"Luxemburg",49.62,6.12
"Luxor",25.7,32.65
"Luyang",33.74,112.89
"Luzern",47.06,8.3
"Luzhou",28.88,105.38
"Luziania",-16.25,-47.92
"Lynchburg",37.4,-79.19
"Lynwood",33.92,-118.2
"Lysva",58.11,57.79
"Lysychans'k",48.92,38.42
"Lytkarino",55.58,37.9
"Lyubertsy",55.67,37.89
"Ma'arrat-an-Nu'man",35.66,36.67
"Maanshan",31.73,118.48
"Maastricht",50.85,5.69
"Mabai",23.02,104.39
"Mabalacat",15.22,120.57
"Mabopane",-25.5,28.08
"MacAllen",26.22,-98.24
"MacKinney",33.2,-96.65
"Macae",-22.38,-41.79
"Macapa",0.04,-51.05
"Macclesfield",53.27,-2.15
"Maceio",-9.65,-35.75
"Machala",-3.26,-79.96
"Macheng",31.18,115.03
"Macherla",16.48,79.43
"Machida",35.56,139.43
"Machilipatnam",16.19,81.14
"Machiques",10.07,-72.55
"Mackay",-21.14,149.18
"Macon",32.84,-83.66
"Madaba",31.72,35.79
"Madanapalle",13.55,78.5
"Madaniyin",33.35,10.49
"Madaripur",23.18,90.2
"Madera",36.97,-120.08
"Madero",22.27,-97.83
"Madgaon",15.28,73.94
"Madhavaram",13.02,80.26
"Madhipura",25.92,86.78
"Madhubani",26.37,86.06
"Madhupur",24.25,86.65
"Madhyamgram",22.7,88.45
"Madina",5.68,-0.17
"Madinat Hamad",26.11,50.51
"Madison",43.08,-89.39
"Madiun",-7.63,111.51
"Madras",13.09,80.27
"Madrid",4.74,-74.27
"Madrid",40.42,-3.71
"Madurai",9.92,78.12
"Maebaru",33.56,130.2
"Maebashi",36.39,139.06
"Mafeteng",-29.83,27.25
"Maftah",36.62,3.22
"Magadan",59.57,150.8
"Magalang",15.22,120.66
"Magangue",9.23,-74.74
"Magdeburg",52.13,11.62
"Magelang",-7.48,110.21
"Magetan",-7.65,111.33
"Maghagheh",28.65,30.84
"Magnitogorsk",53.42,58.97
"Magniyah",34.86,-1.73
"Magura",23.5,89.42
"Magway",20.14,94.92
"Maha Sarakham",16.18,103.29
